Name,City,State,Latitude,Longitude,Elevation,Slope,Earthquake Energy,Precipitation,Category,High Precipitation Landslide Risk,High Earthquake Landslide Risk,Landslide Risk
AMITY ENERGY LLC,AMWELL TOWNSHIP,PA,40.07138821772022,-80.20471938334859,1155.472038085736,13.046698441987752,14508002.179731311,0.09119975151021956,Low,0.0007558081494166262,0.0013303094383506678,0.001330309438350666
BAYLES,GREENE,PA,39.81780240057181,-80.02513106426113,884.0249815250389,9.960970241296003,14508002.179731311,0.09119975151021956,Medium,0.001493135338356717,0.002620632018995822,0.002620632018995823
WASTE MANAGEMENT ARDEN LFGTE,WASHINGTON,PA,40.20892331386723,-80.2708433461988,899.480664565069,10.131593805762149,14508002.179731311,0.09119975151021956,Medium,0.001493135338356717,0.002620632018995822,0.002620632018995823
RED GLEN,CHARTIERS TOWNSHIP,PA,40.26192853273234,-80.26796706444104,944.9224469271378,10.690258248189567,14508002.179731311,0.09119975151021956,Medium,0.001493135338356717,0.002620632018995822,0.002620632018995823
GRAYS LANDING L&D HYDROELECTRIC PROJECT,MASONTOWN,PA,39.82373806955735,-79.92301924716327,501.8890196360014,5.77936021746387,14508002.179731311,0.09119975151021956,Medium,0.001493135338356717,0.002620632018995822,0.002620632018995823
"HILL TOP ENERGY CENTER, LLC",CARMICHAELS,PA,39.89421078732015,-79.93820174238328,1306.419876229017,14.653760875998156,14508002.179731311,0.09119975151021956,Low,0.0007558081494166262,0.0013303094383506678,0.001330309438350666
HATFIELDS FERRY POWER STATION,MASONTOWN,PA,39.855621309519535,-79.9276045133076,970.2808567568612,10.957053823622658,14508002.179731311,0.09119975151021956,Medium,0.001493135338356717,0.002620632018995822,0.002620632018995823
POINT MARION L&D HYDROELECTRIC PROJECT,POINT MARION,PA,39.72685620244564,-79.91012557031812,807.024033377111,9.160080677791312,14508002.179731311,0.09119975151021956,Medium,0.001493135338356717,0.002620632018995822,0.002620632018995823
GREENE ENERGY RESOURCE RECOVERY PROJECT,NEMACOLIN,PA,39.89478680661116,-79.93061812416785,949.0871641148904,10.778292559837308,14508002.179731311,0.09119975151021956,Medium,0.001493135338356717,0.002620632018995822,0.002620632018995823
FAYETTE ENERGY FACILITY,MASONTOWN,PA,39.859352083470604,-79.91786940581979,911.9748161283264,10.279132571252134,14508002.179731311,0.09119975151021956,Medium,0.001493135338356717,0.002620632018995822,0.002620632018995823
RED GLEN ENERGY,HOUSTON,PA,40.26499936405198,-80.22499831415001,768.3383929763587,8.67960742080691,14508002.179731311,0.09119975151021956,Medium,0.001493135338356717,0.002620632018995822,0.002620632018995823
MAXWELL L&D HYDROELECTRIC PROJECT,LUZERNE,PA,40.002399417203804,-79.95882399594092,1818.679977347389,20.453462347091072,14508002.179731311,0.09119975151021956,Low,0.0007558081494166262,0.0013303094383506678,0.001330309438350666
GANS,GANS,PA,39.747661561473365,-79.83882124854611,649.0423602699227,7.436852300296301,14508002.179731311,0.09119975151021956,Medium,0.001493135338356717,0.002620632018995822,0.002620632018995823
ROBINSON POWER COMPANY LLC,BULGER,PA,40.40916821878888,-80.2980573966761,773.9838759024974,8.827067068554783,14508002.179731311,0.09119975151021956,Medium,0.001493135338356717,0.002620632018995822,0.002620632018995823
FIRSTENERGY MITCHELL POWER STATION,CORTNEY,PA,40.22108456883247,-79.96820815127792,-203.4289508325553,-2.0795800446145734,14508002.179731311,0.09119975151021956,High,0.0026114149082491884,0.0045776212663076535,0.004577621266307653
MONONGAHELA L&D4 HYDROELECTRIC PROJECT,CHARLEROI,PA,40.1459426615849,-79.90094740863486,274.68055972639354,3.244148210848053,14508002.179731311,0.09119975151021956,Medium,0.001493135338356717,0.002620632018995822,0.002620632018995823
ELRAMA POWER PLANT,ELRAMA,PA,40.25221249873094,-79.9175031948798,807.9495260855005,9.215508809742754,14508002.179731311,0.09119975151021956,Medium,0.001493135338356717,0.002620632018995822,0.002620632018995823
CLAIRTON WORKS,CLAIRTON,PA,40.309551213719175,-79.88196547491253,1317.4332620538883,14.723475914002933,14508002.179731311,0.09119975151021956,Low,0.0007558081494166262,0.0013303094383506678,0.001330309438350666
BRUNOT ISLAND,PITTSBURG,PA,40.46466443498532,-80.04360182854639,2214.513389485848,24.954533990022014,14508002.179731311,0.09119975151021956,Low,0.0007558081494166262,0.0013303094383506678,0.001330309438350666
EMSWORTH BC HYDROELECTRIC PROJECT,PITTSBURGH,PA,40.50054547770898,-80.10350783481151,423.7774689404878,4.886869011228221,14508002.179731311,0.09119975151021956,Medium,0.001493135338356717,0.002620632018995822,0.002620632018995823
EMSWORTH L&D HYDROELECTRIC PROJECT,PITTSBURGH,PA,40.50305173382949,-80.0894392312006,37.569344783296174,0.5822878192323397,14508002.179731311,0.09119975151021956,High,0.0026114149082491884,0.0045776212663076535,0.004577621266307653
F R PHILLIPS,CRESCENT TOWNSHIP,PA,40.56853864223232,-80.22844680050149,500.87100025180985,5.749661175247167,14508002.179731311,0.09119975151021956,Medium,0.001493135338356717,0.002620632018995822,0.002620632018995823
BEAVER VALLEY,SHIPPINGPORT,PA,40.62276074953341,-80.43251021741098,583.6100709768629,6.710430992925254,14508002.179731311,0.09119975151021956,Medium,0.001493135338356717,0.002620632018995822,0.002620632018995823
FIRSTENERGY BRUCE MANSFIELD,SHIPPINGPORT,PA,40.634689307963875,-80.41600020753353,502.1667126385921,5.781409366984564,14508002.179731311,0.09119975151021956,Medium,0.001493135338356717,0.002620632018995822,0.002620632018995823
BRADDOCK LOCK AND DAM,BRADDOCK,PA,40.388889287987375,-79.8588865562992,325.21249549701247,3.763441467085606,14508002.179731311,0.09119975151021956,Medium,0.001493135338356717,0.002620632018995822,0.002620632018995823
TENASKA WESTMORELAND GENERATING STATION,SOUTH HUNGTINDON,PA,40.175247166178046,-79.69666273928246,867.1810594224247,9.793993125655186,14508002.179731311,0.09119975151021956,Medium,0.001493135338356717,0.002620632018995822,0.002620632018995823
MONTGOMERY L&D HYDROELECTRIC PROJECT,MONACA,PA,40.65247724143404,-80.38687117901593,23.686954157454466,0.43361613162961454,14508002.179731311,0.09119975151021956,High,0.0026114149082491884,0.0045776212663076535,0.004577621266307653
MON VALLEY WORKS,DRAVOSBURG,PA,40.392837499684056,-79.85675795521055,952.9741883000523,10.788229748246543,14508002.179731311,0.09119975151021956,Medium,0.001493135338356717,0.002620632018995822,0.002620632018995823
AES BEAVER VALLEY PARTNERS BEAVER VALLEY,MONACA,PA,40.65749738306963,-80.35382827107728,74.8667178776684,1.0230896821498643,14508002.179731311,0.09119975151021956,High,0.0026114149082491884,0.0045776212663076535,0.004577621266307653
SOUTH CHESTNUT LLC,FARMINGTON,PA,39.79972073541019,-79.57028181801631,1361.023946023994,15.36952502350675,14508002.179731311,0.09119975151021956,Low,0.0007558081494166262,0.0013303094383506678,0.001330309438350666
G F WEATON POWER STATION,MONACA,PA,40.667320228595194,-80.34619887649436,780.3697981854215,8.87579392774936,14508002.179731311,0.09119975151021956,Medium,0.001493135338356717,0.002620632018995822,0.002620632018995823
SHELL CHEMICAL APPALACHIA LLC,MONACA,PA,40.671665168810186,-80.3363874750607,588.8853342246091,6.703538958501298,14508002.179731311,0.09119975151021956,Medium,0.001493135338356717,0.002620632018995822,0.002620632018995823
BEAVER SOLAR LLC,BEAVER,PA,40.69169995898504,-80.3234785394264,894.9458406741079,10.119095839766564,14508002.179731311,0.09119975151021956,Medium,0.001493135338356717,0.002620632018995822,0.002620632018995823
TOWNSEND HYDRO,NEW BRIGHTON,PA,40.733539558877986,-80.31479628839104,894.1128746415206,10.178715453877881,14508002.179731311,0.09119975151021956,Medium,0.001493135338356717,0.002620632018995822,0.002620632018995823
BEAVER VALLEY PATTERSON DAM,BEAVER FALLS,PA,40.74409864098081,-80.31784041682963,-203.4289508325553,-2.0795800446145734,14508002.179731311,0.09119975151021956,High,0.0026114149082491884,0.0045776212663076535,0.004577621266307653
PPG MONROEVILLE CHEMICALS CENTER,MONROEVILLE,PA,40.442470526143495,-79.73273451687054,928.1709385251417,10.52474832712191,14508002.179731311,0.09119975151021956,Medium,0.001493135338356717,0.002620632018995822,0.002620632018995823
APOGEE TECHNOLOGY INC,VERONA,PA,40.51277921192276,-79.80083449291772,1504.2901494975692,17.05219588822323,14508002.179731311,0.09119975151021956,Low,0.0007558081494166262,0.0013303094383506678,0.001330309438350666
CHESWICK POWER PLANT,CHESWICK,PA,40.53839871893234,-79.78993208805872,758.8057728898738,8.618156670508716,14508002.179731311,0.09119975151021956,Medium,0.001493135338356717,0.002620632018995822,0.002620632018995823
FIRSTENERGY SPRINGDALE POWER STATION,SPRINGDALE,PA,40.54416654123706,-79.767555073747,771.114871101527,8.8113059352401,14508002.179731311,0.09119975151021956,Medium,0.001493135338356717,0.002620632018995822,0.002620632018995823
ALLEGHENY ENERGY UNITS 3 4 & 5,SPRINGDALE,PA,40.54538724437033,-79.7681806841028,1050.7987223867426,11.954541306328782,14508002.179731311,0.09119975151021956,Low,0.0007558081494166262,0.0013303094383506678,0.001330309438350666
SPRINGDALE 1 & 2,SPRINGDALE,PA,40.5464744330984,-79.76838667775654,-203.4289508325553,-2.0795800446145734,14508002.179731311,0.09119975151021956,High,0.0026114149082491884,0.0045776212663076535,0.004577621266307653
MILL RUN WINDPOWER,ROCKWOOD,PA,39.921077700344036,-79.39121229776049,1283.375085195083,14.348269691984234,14508002.179731311,0.09119975151021956,Low,0.0007558081494166262,0.0013303094383506678,0.001330309438350666
YOUGH HYDRO POWER,CONFLUENCE,PA,39.80173489558009,-79.36822493188214,1091.0576552016835,12.222740782141344,14508002.179731311,0.09119975151021956,Low,0.0007558081494166262,0.0013303094383506678,0.001330309438350666
NEW CASTLE PLANT,WEST PITTSBURG,PA,40.937854745809645,-80.3686979611194,815.0757747500254,9.291989293784109,14508002.179731311,0.09119975151021956,Medium,0.001493135338356717,0.002620632018995822,0.002620632018995823
HICKORY RUN ENERGY STATION,NORTH BEAVER TOWNSHIP,PA,40.99111936409058,-80.43231185315182,1699.5691109677414,19.199374049565968,14508002.179731311,0.09119975151021956,Low,0.0007558081494166262,0.0013303094383506678,0.001330309438350666
ALLEGHENY NO. 5 HYDRO STATION,SCHENLEY,PA,40.68288037884714,-79.66529829815207,952.8816616242502,10.870180784611913,14508002.179731311,0.09119975151021956,Medium,0.001493135338356717,0.002620632018995822,0.002620632018995823
ALLEGHENY L&D2 HYDROELECTRIC PROJECT,PITTSBURGH,PA,40.89443967593532,-79.91361220364251,615.7246227679029,6.956291134709553,14508002.179731311,0.09119975151021956,Medium,0.001493135338356717,0.002620632018995822,0.002620632018995823
"RINGER HILL WIND FARM, LLC",SALISBURY,PA,39.74472042986164,-79.18805677880636,1123.6350663221021,12.604240381002022,14508002.179731311,0.09119975151021956,Low,0.0007558081494166262,0.0013303094383506678,0.001330309438350666
ALLEGHENY NO 6 HYDRO STATION,FORD CITY,PA,40.71603391300739,-79.57696516767095,918.5459047380388,10.452838211316545,14508002.179731311,0.09119975151021956,Medium,0.001493135338356717,0.002620632018995822,0.002620632018995823
CONEMAUGH HYDRO PLANT,SALTSBURG,PA,40.46390531022432,-79.36596663108558,319.75206592247787,3.7981596509532753,14508002.179731311,0.09119975151021956,Medium,0.001493135338356717,0.002620632018995822,0.002620632018995823
CASSELMAN WIND POWER PROJECT,GARRETT,PA,39.87195584332165,-79.14306623895085,726.6912210988338,8.318979961401336,14508002.179731311,0.09119975151021956,Medium,0.001493135338356717,0.002620632018995822,0.002620632018995823
WIND FARM,NOT AVAILABLE,PA,39.86384198218268,-79.10511763029538,825.4412478939136,9.341504693141733,14508002.179731311,0.09119975151021956,Medium,0.001493135338356717,0.002620632018995822,0.002620632018995823
"GREEN MOUNTAIN STORAGE, LLC",GARRETT,PA,39.85167691252015,-79.07053358465099,1043.7650003980198,11.697533474680938,14508002.179731311,0.09119975151021956,Medium,0.001493135338356717,0.002620632018995822,0.002620632018995823
ARMSTRONG,SHELOCTA,PA,40.63794324475351,-79.35160811048053,23.686954157454466,0.46861518348178066,14508002.179731311,0.09119975151021956,High,0.0026114149082491884,0.0045776212663076535,0.004577621266307653
GENERAL ELECTRIC DIESEL ENGINE PLANT,GROVE CITY,PA,41.16893766363562,-80.10538466587892,23.686954157454466,0.428824233715714,14508002.179731311,0.09119975151021956,High,0.0026114149082491884,0.0045776212663076535,0.004577621266307653
GLADES PIKE GENERATION PLANT,SOMERSET,PA,40.00675580151068,-79.04120619187422,1694.108794368391,19.136013045338785,14508002.179731311,0.09119975151021956,Low,0.0007558081494166262,0.0013303094383506678,0.001330309438350666
KEYSTONE,SHELOCTA,PA,40.66004941555763,-79.34095747564277,981.0166625543261,11.076009986145738,14508002.179731311,0.09119975151021956,Medium,0.001493135338356717,0.002620632018995822,0.002620632018995823
MEYERSDALE WINDPOWER,MEYERSDALE,PA,39.78821560837909,-79.00494367942159,398.4189461355804,4.583521038939503,14508002.179731311,0.09119975151021956,Medium,0.001493135338356717,0.002620632018995822,0.002620632018995823
MEYERSDALE WINDPOWER BATTERY,MEYERSDALE,PA,39.790809602537294,-79.00210554463673,266.90645486847757,3.175504339162865,14508002.179731311,0.09119975151021956,Medium,0.001493135338356717,0.002620632018995822,0.002620632018995823
FPL E SOMERSET WINDPOWER LLC,OHIOPYLE,PA,39.9835548125839,-79.01100904811501,811.3738039164678,9.107283650308096,14508002.179731311,0.09119975151021956,Medium,0.001493135338356717,0.002620632018995822,0.002620632018995823
HOMER CITY GENERATING STATION,HOMER CITY,PA,40.51386258595354,-79.19646437163675,621.8329085358284,7.007385372565318,14508002.179731311,0.09119975151021956,Medium,0.001493135338356717,0.002620632018995822,0.002620632018995823
ALLEGHENY HYDRO NO 9,COWANSVILLE,PA,40.95598981673334,-79.55039961573321,2235.151696122638,25.295592994545288,14508002.179731311,0.09119975151021956,Low,0.0007558081494166262,0.0013303094383506678,0.001330309438350666
ALLEGHENY HYDRO NO 8,ADRIAN,PA,40.896587350510416,-79.47889692970205,1032.9367808999368,11.663999859229886,14508002.179731311,0.09119975151021956,Medium,0.001493135338356717,0.002620632018995822,0.002620632018995823
LOOKOUT WINDPOWER LLC,BERLIN,PA,39.851058931558924,-78.94606764142516,582.6845782684734,6.764293472668907,14508002.179731311,0.09119975151021956,Medium,0.001493135338356717,0.002620632018995822,0.002620632018995823
FIRSTENERGY ARMSTRONG POWER STATION,ADRIAN,PA,40.92909620082841,-79.4660948055919,545.9425064478942,6.174061930224927,14508002.179731311,0.09119975151021956,Medium,0.001493135338356717,0.002620632018995822,0.002620632018995823
CONEMAUGH,NEW FLORENCE,PA,40.38455579186425,-79.06050093077445,484.58235117919264,5.565214862148076,14508002.179731311,0.09119975151021956,Medium,0.001493135338356717,0.002620632018995822,0.002620632018995823
INDIANA UNIVERSITY OF PENNSYLVANIA,INDIANA,PA,40.61571118893876,-79.15737135379383,1043.302254043825,11.708031519973144,14508002.179731311,0.09119975151021956,Medium,0.001493135338356717,0.002620632018995822,0.002620632018995823
SEWARD (PA),NEW FLORENCE,PA,40.406177496112356,-79.03354627971297,1680.9667301241504,19.126269255854712,14508002.179731311,0.09119975151021956,Low,0.0007558081494166262,0.0013303094383506678,0.001330309438350666
TWIN RIDGES WIND FARM,MEYERSDALE,PA,39.75331494285934,-78.87856275815544,866.71831306823,9.713823117573355,14508002.179731311,0.09119975151021956,Medium,0.001493135338356717,0.002620632018995822,0.002620632018995823
KELLY,TOBY TOWNSHIP,PA,41.07825086492527,-79.56500227696493,236.5502770870262,2.8731387455053685,14508002.179731311,0.09119975151021956,Medium,0.001493135338356717,0.002620632018995822,0.002620632018995823
MASON DIXON WIND FARM,MEYERSDALE,PA,39.78733822800205,-78.85536176922875,376.2071211342336,4.4424422370929415,14508002.179731311,0.09119975151021956,Medium,0.001493135338356717,0.002620632018995822,0.002620632018995823
FORWARD WINDPOWER LLC,BERLIN,PA,40.10017010878443,-78.86389143237247,108.92483824888131,1.42206353321345,14508002.179731311,0.09119975151021956,High,0.0026114149082491884,0.0045776212663076535,0.004577621266307653
SCRUBGRASS GENERATING PLANT,KENNERDELL,PA,41.26968763380089,-79.81285078938583,2114.3748976778156,24.037750999699988,14508002.179731311,0.09119975151021956,Low,0.0007558081494166262,0.0013303094383506678,0.001330309438350666
STONY CREEK WIND FARM LLC,BERLIN,PA,40.03361889983728,-78.8269727919857,333.4493467091229,3.859397222890779,14508002.179731311,0.09119975151021956,Medium,0.001493135338356717,0.002620632018995822,0.002620632018995823
HANDSOME LAKE ENERGY LLC,KENNERDELL,PA,41.29079816861194,-79.80609877517995,-203.4289508325553,-2.0795800446145734,14508002.179731311,0.09119975151021956,High,0.0026114149082491884,0.0045776212663076535,0.004577621266307653
MAHONING CREEK HYDROELECTRIC PROJECT,NEW BETHLEHEM,PA,40.92214963706063,-79.27778608849614,1688.0930917638598,19.076124430904287,14508002.179731311,0.09119975151021956,Low,0.0007558081494166262,0.0013303094383506678,0.001330309438350666
CPV FAIRVIEW ENERGY CENTER,JOHNSTOWN,PA,40.411998724179156,-78.85500318768337,369.265925821313,4.332395611417668,14508002.179731311,0.09119975151021956,Medium,0.001493135338356717,0.002620632018995822,0.002620632018995823
PINEY CREEK PROJECT,CLARION,PA,41.17774198498436,-79.44180281323986,623.5913107892131,7.0965317280327405,14508002.179731311,0.09119975151021956,Medium,0.001493135338356717,0.002620632018995822,0.002620632018995823
PINEY,CLARION,PA,41.19210813498407,-79.43527205147687,-203.4289508325553,-2.0795800446145734,14508002.179731311,0.09119975151021956,High,0.0026114149082491884,0.0045776212663076535,0.004577621266307653
CRAWFORD RENEWABLE ENERGY - MEADVILLE PO,COCHRANTON,PA,41.52916715826464,-80.23361190063413,1097.906323838802,12.476790489320232,14508002.179731311,0.09119975151021956,Low,0.0007558081494166262,0.0013303094383506678,0.001330309438350666
WAYNE,COCHRANTON,PA,41.519168836663674,-80.01110823701771,1015.0747264379471,11.688478009553236,14508002.179731311,0.09119975151021956,Medium,0.001493135338356717,0.002620632018995822,0.002620632018995823
SHIPPENVILLE,PAINT TOWNSHIP,PA,41.231365184810684,-79.41490919733505,1160.0068619766969,13.193845135111271,14508002.179731311,0.09119975151021956,Low,0.0007558081494166262,0.0013303094383506678,0.001330309438350666
HIGHLAND NORTH WIND FARM,SIDMAN,PA,40.307056401690545,-78.706199475738,1026.1806389386204,11.66447544476858,14508002.179731311,0.09119975151021956,Medium,0.001493135338356717,0.002620632018995822,0.002620632018995823
COLVER POWER PROJECT,COLVER,PA,40.55062863844883,-78.79866773808305,297.8178774361297,3.533534538912118,14508002.179731311,0.09119975151021956,Medium,0.001493135338356717,0.002620632018995822,0.002620632018995823
EBENSBURG POWER,EBENSBURG,PA,40.45512006236204,-78.74747450043162,-203.4289508325553,-2.0795800446145734,14508002.179731311,0.09119975151021956,High,0.0026114149082491884,0.0045776212663076535,0.004577621266307653
HIGHLAND WIND PROJECT (PA),SIDMAN,PA,40.30397031158174,-78.69066602836716,1885.7781987056235,21.42120419602125,14508002.179731311,0.09119975151021956,Low,0.0007558081494166262,0.0013303094383506678,0.001330309438350666
CAMBRIA COGEN,EBENSBURG,PA,40.47480771508337,-78.7022169317657,743.8128362040385,8.328959345939698,14508002.179731311,0.09119975151021956,Medium,0.001493135338356717,0.002620632018995822,0.002620632018995823
PATTON WIND FARM,PATTON,PA,40.63301465585291,-78.69393140924865,1121.043641548538,12.556505130841911,14508002.179731311,0.09119975151021956,Low,0.0007558081494166262,0.0013303094383506678,0.001330309438350666
ALLEGHENY RIDGE WIND FARM,PORTAGE,PA,40.37777707477729,-78.56385023160979,918.5459047380388,10.434722006545002,14508002.179731311,0.09119975151021956,Medium,0.001493135338356717,0.002620632018995822,0.002620632018995823
NORTH ALLEGHENY WINDPOWER PROJECT,LILLY,PA,40.4017715207407,-78.56799299286831,99.94754767998529,1.356302624142213,14508002.179731311,0.09119975151021956,High,0.0026114149082491884,0.0045776212663076535,0.004577621266307653
SELDOM SEEN WIND LLC,HASTINGS,PA,40.69583127615171,-78.66306287876614,406.5632706718891,4.767542753489261,14508002.179731311,0.09119975151021956,Medium,0.001493135338356717,0.002620632018995822,0.002620632018995823
CHESTNUT FLATS WIND FARM,ALTOONA,PA,40.52100369928319,-78.46972639064023,-203.4289508325553,-2.0795800446145734,14508002.179731311,0.09119975151021956,High,0.0026114149082491884,0.0045776212663076535,0.004577621266307653
JUNIATA LOCOMOTIVE SHOP,ALTOONA,PA,40.533050513329684,-78.38446790617606,23.686954157454466,0.416180339440233,14508002.179731311,0.09119975151021956,High,0.0026114149082491884,0.0045776212663076535,0.004577621266307653
LAKEVIEW GAS RECOVERY,ERIE,PA,42.060211168211545,-80.02078230934886,988.1429112188512,11.227338491482875,14508002.179731311,0.09119975151021956,Medium,0.001493135338356717,0.002620632018995822,0.002620632018995823
ERIE COKE,ERIE,PA,42.143920885575774,-80.06957991710124,783.7015493405867,9.103644234170956,14508002.179731311,0.09119975151021956,Medium,0.001493135338356717,0.002620632018995822,0.002620632018995823
AMERICAN EAGLE PAPER MILLS,TYRONE,PA,40.67984006510583,-78.23330671130456,725.3955087120518,8.129258253075438,14508002.179731311,0.09119975151021956,Medium,0.001493135338356717,0.002620632018995822,0.002620632018995823
WARREN,WARREN,PA,41.8359641879319,-79.18921644678296,446.91478665022396,5.057337417011224,14508002.179731311,0.09119975151021956,Medium,0.001493135338356717,0.002620632018995822,0.002620632018995823
SANDY RIDGE WIND FARM,TYRONE,PA,40.75322721159932,-78.22998029526642,1022.5711947808647,11.426901567841451,14508002.179731311,0.09119975151021956,Medium,0.001493135338356717,0.002620632018995822,0.002620632018995823
SHAWVILLE,SHAWVILLE,PA,41.06721876035831,-78.36537916092958,521.7871128663745,6.161099806808952,14508002.179731311,0.09119975151021956,Medium,0.001493135338356717,0.002620632018995822,0.002620632018995823
JOHNSONBURG MILL,JOHNSONBURG,PA,41.49182127178105,-78.67570478559006,541.7777892601416,6.377267059978713,14508002.179731311,0.09119975151021956,Medium,0.001493135338356717,0.002620632018995822,0.002620632018995823
SENECA GENERATION LLC,WARREN,PA,41.83890150484634,-79.00559980735571,257.2813081061904,3.1250957884054014,14508002.179731311,0.09119975151021956,Medium,0.001493135338356717,0.002620632018995822,0.002620632018995823
WILLIAM F MATSON GENERATING STATION,HUNTINGDON,PA,40.43291852412563,-78.00289136550566,966.208779220095,10.958117517711049,14508002.179731311,0.09119975151021956,Medium,0.001493135338356717,0.002620632018995822,0.002620632018995823
WARRIOR RIDGE HYDRO,PETERSBURG,PA,40.5400733710433,-78.03453809423563,543.9989378677211,6.415553014472611,14508002.179731311,0.09119975151021956,Medium,0.001493135338356717,0.002620632018995822,0.002620632018995823
"CUMMINS, INC",LAKEWOOD,NY,42.08289717300397,-79.36017592059714,22.76146144906511,0.4611253705618701,14508002.179731311,0.09119975151021956,High,0.0026114149082491884,0.0045776212663076535,0.004577621266307653
RIPLEY WESTFIELD WIND LLC,RIPLEY,NY,42.2411117431681,-79.63500197226327,1520.3937452185824,17.18041234291748,14508002.179731311,0.09119975151021956,Low,0.0007558081494166262,0.0013303094383506678,0.001330309438350666
S A CARLSON,JAMESTOWN,NY,42.09328077903138,-79.24793989688774,1466.1598951019978,16.6596118936927,14508002.179731311,0.09119975151021956,Low,0.0007558081494166262,0.0013303094383506678,0.001330309438350666
MOUNTAIN VIEW,GREENCASTLE,PA,39.80037304864703,-77.80004865172943,960.7483496455604,11.174868484000388,14508002.179731311,0.09119975151021956,Medium,0.001493135338356717,0.002620632018995822,0.002620632018995823
CHAUTAUQUA LFGTE FACILITY,JAMESTOWN,NY,42.19806288423375,-79.31914503653017,354.08787929628124,4.275551271882424,14508002.179731311,0.09119975151021956,Medium,0.001493135338356717,0.002620632018995822,0.002620632018995823
CHAMBERSBURG,CHAMBERSBURG,PA,39.86698910744815,-77.6863554136547,1967.8695827000615,22.4534270047725,14508002.179731311,0.09119975151021956,Low,0.0007558081494166262,0.0013303094383506678,0.001330309438350666
ORCHARD PARK,CHAMBERSBURG,PA,39.91109463753224,-77.6665952816849,752.6975436095403,8.381411771701714,14508002.179731311,0.09119975151021956,Medium,0.001493135338356717,0.002620632018995822,0.002620632018995823
WEST CAMPUS STEAM PLANT,UNIVERSITY PARK,PA,40.79278180781467,-77.86472302960888,887.1716793285999,9.99409596083217,14508002.179731311,0.09119975151021956,Medium,0.001493135338356717,0.002620632018995822,0.002620632018995823
FALLING SPRING,CHAMBERSBURG,PA,39.93970486721833,-77.65695935632668,23.686954157454466,0.43286934805268373,14508002.179731311,0.09119975151021956,High,0.0026114149082491884,0.0045776212663076535,0.004577621266307653
EAST CAMPUS STEAM PLANT,UNIVERSITY PARK,PA,40.80916974737887,-77.84750348603522,614.6140767079092,6.971030770064972,14508002.179731311,0.09119975151021956,Medium,0.001493135338356717,0.002620632018995822,0.002620632018995823
UNIVERSITY PARK SOLAR,STATE COLLEGE,PA,40.817020394404736,-77.84411603484041,965.6533932149141,11.192125821727007,14508002.179731311,0.09119975151021956,Medium,0.001493135338356717,0.002620632018995822,0.002620632018995823
CASSADAGA WIND FARM,CHERRY CREEK,NY,42.33833311833875,-79.19555647368138,1543.9938092825132,17.662738713239346,14508002.179731311,0.09119975151021956,Low,0.0007558081494166262,0.0013303094383506678,0.001330309438350666
BLUE RIDGE LANDFILL,CHAMBERSBURG,PA,39.96194073773037,-77.56111127218139,1092.4458942642675,12.71316089748124,14508002.179731311,0.09119975151021956,Low,0.0007558081494166262,0.0013303094383506678,0.001330309438350666
ARKWRIGHT SUMMIT WIND FARM LLC,FREDONIA,NY,42.41490935176792,-79.2426832440201,1269.0299482150467,14.486425093259765,14508002.179731311,0.09119975151021956,Low,0.0007558081494166262,0.0013303094383506678,0.001330309438350666
DUNKIRK GENERATING PLANT,DUNKIRK,NY,42.491001118641066,-79.34690077402286,355.5686450346675,4.2677260876445615,14508002.179731311,0.09119975151021956,Medium,0.001493135338356717,0.002620632018995822,0.002620632018995823
CUMBERLAND COUNTY PA LFG RECOVERY,SHIPPENSBURG,PA,40.13814160562382,-77.5067747239618,801.1933841241839,9.270223123843143,14508002.179731311,0.09119975151021956,Medium,0.001493135338356717,0.002620632018995822,0.002620632018995823
ALLEGANY WIND FARM,GREAT VALLEY,NY,42.03694532943081,-78.53444654488719,276.90176482156494,3.3183241708788955,14508002.179731311,0.09119975151021956,Medium,0.001493135338356717,0.002620632018995822,0.002620632018995823
INDECK OLEAN ENERGY CENTER,OLEAN,NY,42.08559416398905,-78.45505506485728,918.4532650870525,10.602198443047145,14508002.179731311,0.09119975151021956,Medium,0.001493135338356717,0.002620632018995822,0.002620632018995823
SOLEAN SOLAR PROJECT,OLEAN,NY,42.08966826069635,-78.44687635386438,955.5656130736164,11.07202333102933,14508002.179731311,0.09119975151021956,Medium,0.001493135338356717,0.002620632018995822,0.002620632018995823
HOMER STREET WEST,OLEAN,NY,42.098129259288854,-78.44228345832546,1692.1651693006258,19.1044714388169,14508002.179731311,0.09119975151021956,Low,0.0007558081494166262,0.0013303094383506678,0.001330309438350666
HOMER STREET EAST,OLEAN,NY,42.09934233302754,-78.44094831427344,1079.5816359978016,12.198022641333587,14508002.179731311,0.09119975151021956,Low,0.0007558081494166262,0.0013303094383506678,0.001330309438350666
ORRTANNA,ORRTANNA,PA,39.84513852136255,-77.35091382202722,285.9715820662632,3.5211398655242885,14508002.179731311,0.09119975151021956,Medium,0.001493135338356717,0.002620632018995822,0.002620632018995823
SENECA NATION CATTARAUGUS WIND TURBINE,IRVING,NY,42.58089827501208,-79.1026991122126,149.3688809030184,1.9266536361655575,14508002.179731311,0.09119975151021956,High,0.0026114149082491884,0.0045776212663076535,0.004577621266307653
RENOVO ENERGY CENTER,RENOVO,PA,41.3283347899601,-77.75666791413092,23.686954157454466,0.4707575161209636,14508002.179731311,0.09119975151021956,High,0.0026114149082491884,0.0045776212663076535,0.004577621266307653
ANCHOR ENERGY,COUDERSPORT,PA,41.83801268037743,-78.04811841659323,387.405616798301,4.473281014339066,14508002.179731311,0.09119975151021956,Medium,0.001493135338356717,0.002620632018995822,0.002620632018995823
KNOUSE SOLAR PROJECT 1,GARDNERS,PA,40.02692410609073,-77.2346647367672,1349.6403405207302,15.232111570835023,14508002.179731311,0.09119975151021956,Low,0.0007558081494166262,0.0013303094383506678,0.001330309438350666
WEST VALLEY WEST,WEST VALLEY,NY,42.44292830337384,-78.63213331312696,137.52255728935597,1.813588229085708,14508002.179731311,0.09119975151021956,High,0.0026114149082491884,0.0045776212663076535,0.004577621266307653
WEST VALLEY EAST,WEST VALLEY,NY,42.44363020767547,-78.63212568373238,1386.012249150509,15.81887336074439,14508002.179731311,0.09119975151021956,Low,0.0007558081494166262,0.0013303094383506678,0.001330309438350666
BAKERSTAND SOLAR (NY),FRANKLINVILLE,NY,42.344207752167634,-78.47841627107019,339.4650493136544,3.9092088742383098,14508002.179731311,0.09119975151021956,Medium,0.001493135338356717,0.002620632018995822,0.002620632018995823
CASD SOLAR,CARLISLE,PA,40.21516415863609,-77.2053602321742,1445.5213625148397,16.664525984563863,14508002.179731311,0.09119975151021956,Low,0.0007558081494166262,0.0013303094383506678,0.001330309438350666
TALENENERGY MARTINS CREEK LLC LOCK HAVEN,CALDWELL,PA,41.11885831759307,-77.47077924031956,482.45367275982323,5.757566795856177,14508002.179731311,0.09119975151021956,Medium,0.001493135338356717,0.002620632018995822,0.002620632018995823
HUNTERSTOWN POWER PLANT,GETTYSBURG,PA,39.87266537701787,-77.16720562986498,-203.4289508325553,-2.0795800446145734,14508002.179731311,0.09119975151021956,High,0.0026114149082491884,0.0045776212663076535,0.004577621266307653
HUNTERSTOWN,GETTYSBURG,PA,39.86624142677901,-77.16481762936053,473.3838555151252,5.318601343641669,14508002.179731311,0.09119975151021956,Medium,0.001493135338356717,0.002620632018995822,0.002620632018995823
MOUNTAIN,MOUNT HOLLY SPRINGS,PA,40.122959110403734,-77.17231732423554,296.52222153693947,3.6533355031037473,14508002.179731311,0.09119975151021956,Medium,0.001493135338356717,0.002620632018995822,0.002620632018995823
VITRO ARCHITECTURAL GLASS (PA),CARLISLE,PA,40.126216861890654,-77.16448193599888,1394.5267368776183,15.825870885491163,14508002.179731311,0.09119975151021956,Low,0.0007558081494166262,0.0013303094383506678,0.001330309438350666
GETTYSBURG ENERGY & NUTRIENT REC FACILITY,YORK SPRINGS,PA,39.94786450472481,-77.12928753878785,534.0036279146336,6.18241236836181,14508002.179731311,0.09119975151021956,Medium,0.001493135338356717,0.002620632018995822,0.002620632018995823
JERSEY SHORE STEEL CO,MCELHATTAN,PA,41.16230390504574,-77.35406476198997,917.4352457028609,10.393256397904235,14508002.179731311,0.09119975151021956,Medium,0.001493135338356717,0.002620632018995822,0.002620632018995823
STEEL WINDS II,LACKAWANNA,NY,42.80334471817014,-78.86016828781601,357.6972669664449,4.104861775964519,14508002.179731311,0.09119975151021956,Medium,0.001493135338356717,0.002620632018995822,0.002620632018995823
CHAFFEE GAS RECOVERY,CHAFFEE,NY,42.58073805772584,-78.49367506023604,1855.9773786855571,21.214979405776866,14508002.179731311,0.09119975151021956,Low,0.0007558081494166262,0.0013303094383506678,0.001330309438350666
STEEL SUN 2: 2303-III-2 HAMBURG TPKE,LACKAWANNA,NY,42.80900191425341,-78.85337049724262,407.21112686528,4.9253606718516085,14508002.179731311,0.09119975151021956,Medium,0.001493135338356717,0.002620632018995822,0.002620632018995823
STEEL WINDS WIND FARM,LACKAWANNA,NY,42.817066184327594,-78.86752302419394,860.8876638153029,10.0842242553878,14508002.179731311,0.09119975151021956,Medium,0.001493135338356717,0.002620632018995822,0.002620632018995823
STEEL SUN 2: 2303-III-4 HAMBURG TPKE,LACKAWANNA,NY,42.81114577413122,-78.85421736004132,671.1616585954672,7.460351148789512,14508002.179731311,0.09119975151021956,Medium,0.001493135338356717,0.002620632018995822,0.002620632018995823
STEEL SUN,LACKAWANNA,NY,42.81254958273448,-78.85173780680186,397.3083435879946,4.662894155541066,14508002.179731311,0.09119975151021956,Medium,0.001493135338356717,0.002620632018995822,0.002620632018995823
STEEL SUN 2: 2303-III-9 HAMBURG TPKE,LACKAWANNA,NY,42.818489066417314,-78.85537702801793,342.51922044141315,3.938776053551493,14508002.179731311,0.09119975151021956,Medium,0.001493135338356717,0.002620632018995822,0.002620632018995823
HAMILTON (PA),ABBOTTSTOWN,PA,39.90979382575584,-76.98944073608283,23.686954157454466,0.49501963105404734,14508002.179731311,0.09119975151021956,High,0.0026114149082491884,0.0045776212663076535,0.004577621266307653
GENERAL MILLS INC,BUFFALO,NY,42.87086486022933,-78.87559492366267,271.81155492542325,3.3710838372061147,14508002.179731311,0.09119975151021956,Medium,0.001493135338356717,0.002620632018995822,0.002620632018995823
BIG LEVEL WIND,HECTOR TOWNSHIP,PA,41.869327530443186,-77.66593915375077,1557.320926878358,17.61364175882889,14508002.179731311,0.09119975151021956,Low,0.0007558081494166262,0.0013303094383506678,0.001330309438350666
NOBLE BLISS WINDPARK LLC,BLISS,NY,42.534351338661445,-78.30507642614614,357.6972669664449,4.117648521718812,14508002.179731311,0.09119975151021956,Medium,0.001493135338356717,0.002620632018995822,0.002620632018995823
HYLAND LFGTE FACILITY,ANGELICA,NY,42.28582762481882,-78.01297742514429,537.6130720723893,6.015125814440734,14508002.179731311,0.09119975151021956,Medium,0.001493135338356717,0.002620632018995822,0.002620632018995823
HOUGHTON,HOUGHTON,NY,42.427890766650826,-78.14600354909216,346.31371795077325,3.9936297027866026,14508002.179731311,0.09119975151021956,Medium,0.001493135338356717,0.002620632018995822,0.002620632018995823
TALENENERGY MARTINS CREEK LLC WEST SHORE,CAMP HILL,PA,40.19081494582458,-76.94577771088476,1698.8286716109562,19.359225293900586,14508002.179731311,0.09119975151021956,Low,0.0007558081494166262,0.0013303094383506678,0.001330309438350666
C R HUNTLEY GENERATING STATION,TONAWANDA,NY,42.97012709845093,-78.93093855196722,1605.4465477146089,18.16008163101402,14508002.179731311,0.09119975151021956,Low,0.0007558081494166262,0.0013303094383506678,0.001330309438350666
INDECK YERKES ENERGY CENTER,TONAWANDA,NY,42.96730040775794,-78.91778547570625,358.8078695140307,4.228112713255234,14508002.179731311,0.09119975151021956,Medium,0.001493135338356717,0.002620632018995822,0.002620632018995823
BIG TREE COMMUNITY SOLAR FARM,WALES,NY,42.76599883168655,-78.55899793665505,23.686954157454466,0.42428199623247664,14508002.179731311,0.09119975151021956,High,0.0026114149082491884,0.0045776212663076535,0.004577621266307653
HOSPIRA INC,BUFFALO,NY,42.90951537318661,-78.74755079437745,832.1973898552302,9.493355375576808,14508002.179731311,0.09119975151021956,Medium,0.001493135338356717,0.002620632018995822,0.002620632018995823
P H GLATFELTER,SPRING GROVE,PA,39.870941133842116,-76.86811810342516,823.3126824497283,9.35704078043441,14508002.179731311,0.09119975151021956,Medium,0.001493135338356717,0.002620632018995822,0.002620632018995823
ROUTE 19 #2 COMMUNITY SOLAR FARM,PIKE,NY,42.53380583694876,-78.15377027277758,461.25992363026035,5.193763656078603,14508002.179731311,0.09119975151021956,Medium,0.001493135338356717,0.002620632018995822,0.002620632018995823
ROUTE 19 #1 COMMUNITY SOLAR FARM,PIKE,NY,42.53400038651063,-78.15100080254398,1887.259077419194,21.540805607685552,14508002.179731311,0.09119975151021956,Low,0.0007558081494166262,0.0013303094383506678,0.001330309438350666
TELEGRAPH RD #2 COMMUNITY SOLAR FARM,PIKE,NY,42.559474935023125,-78.17941266797078,105.96325028451656,1.3351926919177632,14508002.179731311,0.09119975151021956,High,0.0026114149082491884,0.0045776212663076535,0.004577621266307653
TELEGRAPH RD #1 COMMUNITY SOLAR FARM,PIKE,NY,42.56167220066302,-78.17952710888953,773.7062958750911,9.059821795901282,14508002.179731311,0.09119975151021956,Medium,0.001493135338356717,0.002620632018995822,0.002620632018995823
PAXTON CREEK COGENERATION,HARRISBURG,PA,40.2651710254301,-76.87747174118383,1312.9908518635452,14.888039059423319,14508002.179731311,0.09119975151021956,Low,0.0007558081494166262,0.0013303094383506678,0.001330309438350666
"COVANTA NIAGARA I, LLC",NIAGARA FALLS,NY,43.08314132040831,-79.00763685570936,366.21181118114623,4.420300697419958,14508002.179731311,0.09119975151021956,Medium,0.001493135338356717,0.002620632018995822,0.002620632018995823
WPS POWER NIAGARA,NIAGARA FALLS,NY,43.082637780365836,-79.00329573019167,168.71167285959837,2.126254952766155,14508002.179731311,0.09119975151021956,High,0.0026114149082491884,0.0045776212663076535,0.004577621266307653
WISCOY 170,FILMORE,NY,42.504199971269585,-78.08280164436721,187.1289721077892,2.3911297252379775,14508002.179731311,0.09119975151021956,Medium,0.001493135338356717,0.002620632018995822,0.002620632018995823
HIGH SHELDON WIND FARM,STRYKERSVILLE,NY,42.76536559193617,-78.41499311390234,1271.713899664413,13.987367957739337,14508002.179731311,0.09119975151021956,Low,0.0007558081494166262,0.0013303094383506678,0.001330309438350666
TALENENERGY MARTINS CREEK LLC HARRISBURG,HARRISBURG,PA,40.25788876830067,-76.85788708528946,1476.0626218916912,16.58773078772611,14508002.179731311,0.09119975151021956,Low,0.0007558081494166262,0.0013303094383506678,0.001330309438350666
HARRISBURG FACILITY,HARRISBURG,PA,40.244194005024255,-76.85387402373884,1079.5816359978016,12.237641290239056,14508002.179731311,0.09119975151021956,Low,0.0007558081494166262,0.0013303094383506678,0.001330309438350666
ALLEGANY COGEN,FILLMORE,NY,42.50299834162277,-78.06835157102715,156.49515781133937,1.9946351165320646,14508002.179731311,0.09119975151021956,High,0.0026114149082491884,0.0045776212663076535,0.004577621266307653
FORTISTAR NORTH TONAWANDA,NORTH TONAWANDA,NY,43.04838179868835,-78.85359937908011,324.2870027886229,3.712440412348327,14508002.179731311,0.09119975151021956,Medium,0.001493135338356717,0.002620632018995822,0.002620632018995823
LETCHWORTH SOLAR PROJECT,GAINESVILLE,NY,42.6187209986571,-78.18090802930904,1189.9928483235517,13.870741373178436,14508002.179731311,0.09119975151021956,Low,0.0007558081494166262,0.0013303094383506678,0.001330309438350666
ROBERT MOSES NIAGARA,LEWISTON,NY,43.141155236817134,-79.04074079880466,-203.4289508325553,-2.0795800446145734,14508002.179731311,0.09119975151021956,High,0.0026114149082491884,0.0045776212663076535,0.004577621266307653
NOBLE WETHERSFIELD WINDPARK LLC,GAINSVILLE,NY,42.670295706037905,-78.23233777819253,495.0404074864749,5.689860469415016,14508002.179731311,0.09119975151021956,Medium,0.001493135338356717,0.002620632018995822,0.002620632018995823
LEWISTON NIAGARA,LEWISTON,NY,43.14149093017878,-79.02186567660651,1301.3296663328751,14.922114191864825,14508002.179731311,0.09119975151021956,Low,0.0007558081494166262,0.0013303094383506678,0.001330309438350666
WETHERSFIELD WIND FARM,GAINESVILLE,NY,42.68556212459841,-78.24518567867018,981.1091892301282,11.068142166235736,14508002.179731311,0.09119975151021956,Medium,0.001493135338356717,0.002620632018995822,0.002620632018995823
"BASSWOOD ENERGY, LLC",DUNCAN TOWNSHIP,PA,41.641647322601216,-77.27623730784956,269.59037807404775,3.106102695325454,14508002.179731311,0.09119975151021956,Medium,0.001493135338356717,0.002620632018995822,0.002620632018995823
STONY CREEK WIND FARM NY,STRYKERSVILLE,NY,42.735145559993065,-78.2453993017185,1229.326288430103,13.51711319669168,14508002.179731311,0.09119975151021956,Low,0.0007558081494166262,0.0013303094383506678,0.001330309438350666
SUSQUEHANNA UNIVERSITY SOLAR,SELINSGROVE,PA,40.79516599362184,-76.88252240039773,1479.1167930194501,16.54894199602679,14508002.179731311,0.09119975151021956,Low,0.0007558081494166262,0.0013303094383506678,0.001330309438350666
GSK YORK RDC SOLAR FACILITY,YORK,PA,40.0438613620649,-76.73547344920644,887.5418990069924,10.30462430776054,14508002.179731311,0.09119975151021956,Medium,0.001493135338356717,0.002620632018995822,0.002620632018995823
PHOENIX CONTACT - CCHP PLANT,MIDDLETOWN,PA,40.22871396341543,-76.74772625690662,987.2174185104617,11.476018741230448,14508002.179731311,0.09119975151021956,Medium,0.001493135338356717,0.002620632018995822,0.002620632018995823
YORK COUNTY RESOURCE RECOVERY,YORK,PA,40.00168988350759,-76.71813946471403,1714.1919409503682,19.68165470741461,14508002.179731311,0.09119975151021956,Low,0.0007558081494166262,0.0013303094383506678,0.001330309438350666
MODEL CITY ENERGY FACILITY,YOUNGSTOWN,NY,43.209495538793995,-78.98079664556663,486.24822675677524,5.437053789873305,14508002.179731311,0.09119975151021956,Medium,0.001493135338356717,0.002620632018995822,0.002620632018995823
MODERN INNOVATIVE ENERGY LLC,YOUNGSTOWN,NY,43.21006774338772,-78.98085768072329,1029.9751364479803,11.73513550024858,14508002.179731311,0.09119975151021956,Medium,0.001493135338356717,0.002620632018995822,0.002620632018995823
INDECK SILVER SPRINGS ENERGY CENTER,SILVER SPRINGS,NY,42.65398024572225,-78.0774000330025,1081.3399817635943,12.639396789252388,14508002.179731311,0.09119975151021956,Low,0.0007558081494166262,0.0013303094383506678,0.001330309438350666
THREE MILE ISLAND,MIDDLETOWN,PA,40.15445325124219,-76.72489147891991,510.77378352909545,6.1494510379120335,14508002.179731311,0.09119975151021956,Medium,0.001493135338356717,0.002620632018995822,0.002620632018995823
TALENENERGY MARTINS CREEK LLC WILLIAMSPORT,WILLIAMSPORT,PA,41.23605726247921,-77.00746136608771,755.4740217347086,8.769198593802205,14508002.179731311,0.09119975151021956,Medium,0.001493135338356717,0.002620632018995822,0.002620632018995823
YORK HAVEN,YORK HAVEN,PA,40.11423489769812,-76.71147137384855,112.34917256744052,1.5587983314750637,14508002.179731311,0.09119975151021956,High,0.0026114149082491884,0.0045776212663076535,0.004577621266307653
BRUNNER ISLAND,YORK HAVEN,PA,40.09577557750465,-76.69664746017393,172.50619861275436,2.2129420650829363,14508002.179731311,0.09119975151021956,High,0.0026114149082491884,0.0045776212663076535,0.004577621266307653
BUCKNELL UNIVERSITY,LEWISBURG,PA,40.95512769514547,-76.87895184373292,1050.2434493567457,11.889524104033395,14508002.179731311,0.09119975151021956,Medium,0.001493135338356717,0.002620632018995822,0.002620632018995823
YORK GENERATION COMPANY LLC,YORK,PA,39.98564145200233,-76.67616253571877,1507.0666276227375,17.57357829239555,14508002.179731311,0.09119975151021956,Low,0.0007558081494166262,0.0013303094383506678,0.001330309438350666
NILES VALLEY ENERGY LLC,CHARLESTON TOWNSHIP,PA,41.81371687332799,-77.27917462476398,1191.2885607103335,13.494963745244485,14508002.179731311,0.09119975151021956,Low,0.0007558081494166262,0.0013303094383506678,0.001330309438350666
PANDA HUMMEL STATION LLC,SHAMOKIN DAM,PA,40.839012124290115,-76.82551556407411,250.525222632466,3.1167159008867316,14508002.179731311,0.09119975151021956,Medium,0.001493135338356717,0.002620632018995822,0.002620632018995823
SUNBURY GENERATION LP,SHAMOKIN DAM,PA,40.838180520280574,-76.82423382578418,1459.4963927916676,17.09052228067421,14508002.179731311,0.09119975151021956,Low,0.0007558081494166262,0.0013303094383506678,0.001330309438350666
LOCKPORT ENERGY ASSOCIATES LP,LOCKPORT,NY,43.16193770766112,-78.74505598234883,938.2588316416234,10.453472032339462,14508002.179731311,0.09119975151021956,Medium,0.001493135338356717,0.002620632018995822,0.002620632018995823
LYCOMING COUNTY,MONTGOMERY,PA,41.15179059931042,-76.91719036938254,843.7660487100982,9.318615051262782,14508002.179731311,0.09119975151021956,Medium,0.001493135338356717,0.002620632018995822,0.002620632018995823
ALLENWOOD,MONTGOMERY,PA,41.151798228705005,-76.91710644604213,1244.9671377969212,14.126286405683237,14508002.179731311,0.09119975151021956,Low,0.0007558081494166262,0.0013303094383506678,0.001330309438350666
MARSH HILL WIND FARM,JASPER,NY,42.172874438018106,-77.51463300038222,23.686954157454466,0.4747531818691133,14508002.179731311,0.09119975151021956,High,0.0026114149082491884,0.0045776212663076535,0.004577621266307653
TOLNA,STEWARTSTOWN,PA,39.760509461951074,-76.63542156864595,-203.4289508325553,-2.0795800446145734,14508002.179731311,0.09119975151021956,High,0.0026114149082491884,0.0045776212663076535,0.004577621266307653
LANCASTER COUNTY RESOURCE RECOVERY,BRAINBRIDGE,PA,40.07128140619606,-76.64426403696757,324.56463930362133,3.7488424854939417,14508002.179731311,0.09119975151021956,Medium,0.001493135338356717,0.002620632018995822,0.002620632018995823
VIKING ENERGY OF NORTHUMBERLAND,NORTHUMBERLAND,PA,40.91719815997629,-76.81459790042595,23.686954157454466,0.41400328290312594,14508002.179731311,0.09119975151021956,High,0.0026114149082491884,0.0045776212663076535,0.004577621266307653
HYDRAULIC RACE,LOCKPORT,NY,43.17095183736088,-78.69155103813878,1303.7359247796508,14.952451450534562,14508002.179731311,0.09119975151021956,Low,0.0007558081494166262,0.0013303094383506678,0.001330309438350666
LAUREL HILL WIND,ROARING BRANCH,PA,41.52612302982604,-77.05014782877916,23.686954157454466,0.4190769278875468,14508002.179731311,0.09119975151021956,High,0.0026114149082491884,0.0045776212663076535,0.004577621266307653
HOWARD WIND FARM,HORNELL,NY,42.302661883966124,-77.55477124528298,110.22052239186723,1.504121818073683,14508002.179731311,0.09119975151021956,High,0.0026114149082491884,0.0045776212663076535,0.004577621266307653
MODERN LANDFILL PRODUCTION PLANT,YORK,PA,39.953041048949345,-76.59347515722904,-203.4289508325553,-2.0795800446145734,14508002.179731311,0.09119975151021956,High,0.0026114149082491884,0.0045776212663076535,0.004577621266307653
BARON WINDS FARM,COHOCTON,NY,42.37499998870446,-77.59300214153802,157.51320543932707,2.079159677231125,14508002.179731311,0.09119975151021956,High,0.0026114149082491884,0.0045776212663076535,0.004577621266307653
PANDA PATRIOT GENERATION PLANT,MONTGOMERY,PA,41.18082807509316,-76.83917218037755,813.7800623632435,9.22062948582943,14508002.179731311,0.09119975151021956,Medium,0.001493135338356717,0.002620632018995822,0.002620632018995823
ELIZABETHTOWN SOLAR,ELIZABETHTOWN,PA,40.15269467579082,-76.58139782560427,-39.80183716492252,-0.2026186417367466,14508002.179731311,0.09119975151021956,High,0.0026114149082491884,0.0045776212663076535,0.004577621266307653
SYNERGY BIOGAS,WYOMING,NY,42.828392020585994,-78.05429059681082,1992.0248068188052,22.614517760400204,14508002.179731311,0.09119975151021956,Low,0.0007558081494166262,0.0013303094383506678,0.001330309438350666
KOPPERS SUSQUEHANNA PLANT,MONGOMERY,PA,41.18565366716688,-76.8319547731021,527.0624326017127,5.883290162587883,14508002.179731311,0.09119975151021956,Medium,0.001493135338356717,0.002620632018995822,0.002620632018995823
BLOSSBURG,BLOSSBURG,PA,41.70647047367533,-77.08198529237372,592.6798882215611,7.10690406402359,14508002.179731311,0.09119975151021956,Medium,0.001493135338356717,0.002620632018995822,0.002620632018995823
ALABAMA LEDGE WIND FARM LLC,ALABAMA,NY,43.07427596390291,-78.35198957343655,768.1533396247545,8.91800148499393,14508002.179731311,0.09119975151021956,Medium,0.001493135338356717,0.002620632018995822,0.002620632018995823
FORT INDIANTOWN GAP,ANNVILLE,PA,40.4275588744311,-76.57312756187638,489.30234139694187,5.454617049536089,14508002.179731311,0.09119975151021956,Medium,0.001493135338356717,0.002620632018995822,0.002620632018995823
US GYPSUM OAKFIELD,OAKFIELD,NY,43.06475066476609,-78.29796583039486,-203.4289508325553,-2.0795800446145734,14508002.179731311,0.09119975151021956,High,0.0026114149082491884,0.0045776212663076535,0.004577621266307653
MASSER FARMS REALTY SOLAR,SACRAMENTO,PA,40.64056012709546,-76.6054227891459,-203.4289508325553,-2.0795800446145734,14508002.179731311,0.09119975151021956,High,0.0026114149082491884,0.0045776212663076535,0.004577621266307653
BATAVIA POWER PLANT,BATAVIA,NY,42.98277281997218,-78.15961438902809,311.607741386169,3.8134179470625362,14508002.179731311,0.09119975151021956,Medium,0.001493135338356717,0.002620632018995822,0.002620632018995823
ESC TIOGA COUNTY POWER,TIOGA,PA,41.76721189864756,-77.0353849502612,309.2014829393934,3.822219795872469,14508002.179731311,0.09119975151021956,Medium,0.001493135338356717,0.002620632018995822,0.002620632018995823
CALL FARMS 3,BATAVIA,NY,43.023044579278334,-78.1794050385762,518.7329982262078,5.851353846441465,14508002.179731311,0.09119975151021956,Medium,0.001493135338356717,0.002620632018995822,0.002620632018995823
COHOCTON WIND PROJECT,COHOCTON,NY,42.445560444504956,-77.52319318110426,631.5505819739175,7.21406113393974,14508002.179731311,0.09119975151021956,Medium,0.001493135338356717,0.002620632018995822,0.002620632018995823
CALL FARMS 1,BATAVIA,NY,43.03842162406029,-78.18483716751925,324.00936627362444,3.7731711911933044,14508002.179731311,0.09119975151021956,Medium,0.001493135338356717,0.002620632018995822,0.002620632018995823
LICHTENTHAL,BATAVIA,NY,43.019794457185995,-78.15418226008505,448.3955523886101,5.146524649978737,14508002.179731311,0.09119975151021956,Medium,0.001493135338356717,0.002620632018995822,0.002620632018995823
MOUNT JOY WIRE,MOUNT JOY,PA,40.10845944599882,-76.47673016132111,448.58066222780644,5.191478032417597,14508002.179731311,0.09119975151021956,Medium,0.001493135338356717,0.002620632018995822,0.002620632018995823
PPL FREY FARM LANDFILL WIND,CONESTOGA,PA,39.95945736979362,-76.45484905765728,-51.9257972935834,-0.33530371045976715,14508002.179731311,0.09119975151021956,High,0.0026114149082491884,0.0045776212663076535,0.004577621266307653
SREC BATH LFGTE,BATH,NY,42.32223128107142,-77.38537579735831,1318.4512814380798,15.127066065547233,14508002.179731311,0.09119975151021956,Low,0.0007558081494166262,0.0013303094383506678,0.001330309438350666
GLRA LANDFILL,LEBANON,PA,40.36637494457306,-76.49296551299358,1391.9354250792383,15.860854992880931,14508002.179731311,0.09119975151021956,Low,0.0007558081494166262,0.0013303094383506678,0.001330309438350666
FREY FARM LANDFILL,CONESTOGA,PA,39.958900423989064,-76.44419842281953,625.442296205992,7.188993116894645,14508002.179731311,0.09119975151021956,Medium,0.001493135338356717,0.002620632018995822,0.002620632018995823
TALENENERGY MONTOUR,WASHINGTONVILLE,PA,41.06929014098758,-76.665786559086,1006.8378187382442,11.318935738783715,14508002.179731311,0.09119975151021956,Medium,0.001493135338356717,0.002620632018995822,0.002620632018995823
TIME WARNER CABLE - KNOWLES,BATH,NY,42.33482741152788,-77.37665539935001,1131.4092276676104,12.482643444064454,14508002.179731311,0.09119975151021956,Low,0.0007558081494166262,0.0013303094383506678,0.001330309438350666
GLENWOOD HYDRO,MEDINA,NY,43.235946649813116,-78.39041120455616,342.51922044141315,3.8900074377708016,14508002.179731311,0.09119975151021956,Medium,0.001493135338356717,0.002620632018995822,0.002620632018995823
SOMERSET OPERATING CO LLC,BARKER,NY,43.35924529566832,-78.60453779292052,1110.2154220504553,12.484910606918968,14508002.179731311,0.09119975151021956,Low,0.0007558081494166262,0.0013303094383506678,0.001330309438350666
DUTCH HILL WIND PROJECT,COHOCTON,NY,42.54594420373025,-77.50300580303784,-203.4289508325553,-2.0795800446145734,14508002.179731311,0.09119975151021956,High,0.0026114149082491884,0.0045776212663076535,0.004577621266307653
SAFE HARBOR,CONESTOGA,PA,39.92407605241514,-76.38997631551868,-203.4289508325553,-2.0795800446145734,14508002.179731311,0.09119975151021956,High,0.0026114149082491884,0.0045776212663076535,0.004577621266307653
BEAVER DAM,CANTON TOWNSHIP,PA,41.61223219178661,-76.84078198263455,1150.1041351870035,13.31083390311384,14508002.179731311,0.09119975151021956,Low,0.0007558081494166262,0.0013303094383506678,0.001330309438350666
GOOD SPRING NGCC FACILITY,GOOD SPRING,PA,40.62361142702942,-76.46193676522483,1018.4064775931122,11.685701855891137,14508002.179731311,0.09119975151021956,Medium,0.001493135338356717,0.002620632018995822,0.002620632018995823
WESTWOOD GENERATION LLC,TREMONT,PA,40.618770576166526,-76.45045452637753,1165.9300379054262,13.648387112575538,14508002.179731311,0.09119975151021956,Low,0.0007558081494166262,0.0013303094383506678,0.001330309438350666
HOLTWOOD,HOLTWOOD,PA,39.82727429394655,-76.33196239911013,1299.293514589308,15.218260691449327,14508002.179731311,0.09119975151021956,Low,0.0007558081494166262,0.0013303094383506678,0.001330309438350666
ALPACA,CANTON TOWNSHIP,PA,41.663055403800996,-76.80555706784517,766.0246612053851,9.030052426802703,14508002.179731311,0.09119975151021956,Medium,0.001493135338356717,0.002620632018995822,0.002620632018995823
ARMENIA MOUNTAIN WIND FARM,MAINESBURG,PA,41.759891494545215,-76.85533886749877,23.686954157454466,0.42081180415485164,14508002.179731311,0.09119975151021956,High,0.0026114149082491884,0.0045776212663076535,0.004577621266307653
IRONWOOD LLC,LEBANON,PA,40.351310704969,-76.36578350529624,1137.1472372695512,13.414360347753085,14508002.179731311,0.09119975151021956,Low,0.0007558081494166262,0.0013303094383506678,0.001330309438350666
FOSTER WHEELER MT CARMEL COGEN,MARION HEIGHTS,PA,40.811191536943355,-76.45294933840614,18.319107746314103,0.4467841809465867,14508002.179731311,0.09119975151021956,High,0.0026114149082491884,0.0045776212663076535,0.004577621266307653
YORK ENERGY CENTER,DELTA,PA,39.73896405164879,-76.30773144191475,-203.4289508325553,-2.0795800446145734,14508002.179731311,0.09119975151021956,High,0.0026114149082491884,0.0045776212663076535,0.004577621266307653
PINE GROVE,PINE GROVE,PA,40.55616376421876,-76.38928204061163,1649.4999780389094,19.198275192036636,14508002.179731311,0.09119975151021956,Low,0.0007558081494166262,0.0013303094383506678,0.001330309438350666
MUDDY RUN,DRUMORE,PA,39.807620973500846,-76.2994459193977,359.8258888982223,4.04709483564765,14508002.179731311,0.09119975151021956,Medium,0.001493135338356717,0.002620632018995822,0.002620632018995823
MILL SEAT RENEWABLE ENERGY FACILITY,BERGEN,NY,43.063407891319486,-77.93198377225195,318.7340465382863,3.9469977055859395,14508002.179731311,0.09119975151021956,Medium,0.001493135338356717,0.002620632018995822,0.002620632018995823
BROAD MOUNTAIN,HEGINS,PA,40.66960904697008,-76.3807218598896,1235.6196840372247,14.064683573502984,14508002.179731311,0.09119975151021956,Low,0.0007558081494166262,0.0013303094383506678,0.001330309438350666
PEACH BOTTOM,DELTA,PA,39.7590179153101,-76.26857738891519,1241.635386641756,13.620982484880075,14508002.179731311,0.09119975151021956,Low,0.0007558081494166262,0.0013303094383506678,0.001330309438350666
MONROE LIVINGSTON GAS RECOVERY,SCOTTVILLE,NY,42.98859023334169,-77.79649335385379,22.76146144906511,0.4575457322743244,14508002.179731311,0.09119975151021956,High,0.0026114149082491884,0.0045776212663076535,0.004577621266307653
WATERPORT,WATERPORT,NY,43.32711410038219,-78.2388761693501,910.4940503899401,10.747453343048171,14508002.179731311,0.09119975151021956,Medium,0.001493135338356717,0.002620632018995822,0.002620632018995823
WMPI PTY LLC,GILBERTON,PA,40.79306028071695,-76.3724973725292,418.2245126901512,4.698678231212185,14508002.179731311,0.09119975151021956,Medium,0.001493135338356717,0.002620632018995822,0.002620632018995823
KEYSTONE SOLAR,QUARRYVILLE,PA,39.86181256322361,-76.22189312346227,1710.9527164710053,20.070957952905577,14508002.179731311,0.09119975151021956,Low,0.0007558081494166262,0.0013303094383506678,0.001330309438350666
ECOGEN WIND,BRANCHPORT,NY,42.58694075552178,-77.31249982030221,23.686954157454466,0.44243885873260425,14508002.179731311,0.09119975151021956,High,0.0026114149082491884,0.0045776212663076535,0.004577621266307653
DART CONTAINER CORP,LEOLA,PA,40.08639142216761,-76.17604046201889,949.1796907906925,11.241535730761816,14508002.179731311,0.09119975151021956,Medium,0.001493135338356717,0.002620632018995822,0.002620632018995823
WASHINGTON ST COMMUNITY SOLAR FARM #4,OGDEN,NY,43.174999231187144,-77.84899884737348,987.5876381888543,11.46674086733881,14508002.179731311,0.09119975151021956,Medium,0.001493135338356717,0.002620632018995822,0.002620632018995823
WASHINGTON ST COMMUNITY SOLAR FARM #1,OGDEN,NY,43.173000329806406,-77.84600049530238,-21.56963363402997,0.016608270337680864,14508002.179731311,0.09119975151021956,High,0.0026114149082491884,0.0045776212663076535,0.004577621266307653
WASHINGTON ST COMMUNITY SOLAR FARM #3,OGDEN,NY,43.17200087911604,-77.84400159392166,787.5886865009327,9.122994675719442,14508002.179731311,0.09119975151021956,Medium,0.001493135338356717,0.002620632018995822,0.002620632018995823
"TPE PENNSYLVANIA SOLAR 1, LLC",EPHRATA,PA,40.198528263747946,-76.16159038867883,535.6695034922162,6.353846450141589,14508002.179731311,0.09119975151021956,Medium,0.001493135338356717,0.002620632018995822,0.002620632018995823
CHAMBERS ROAD SOLAR,BIG FLATS,NY,42.18744276697427,-76.89439373836876,2055.8838036976767,23.348401629024437,14508002.179731311,0.09119975151021956,Low,0.0007558081494166262,0.0013303094383506678,0.001330309438350666
KEUKA,TOWN OF WAYNE,NY,42.49417113209029,-77.11943799038129,954.9177003926333,10.768376469492635,14508002.179731311,0.09119975151021956,Medium,0.001493135338356717,0.002620632018995822,0.002620632018995823
L&S SWEETNERS,LEOLA,PA,40.090560886307195,-76.1455610306601,23.686954157454466,0.4517129965086415,14508002.179731311,0.09119975151021956,High,0.0026114149082491884,0.0045776212663076535,0.004577621266307653
"RIT HENRIETTA SOLAR 1, LLC",ROCHESTER,NY,43.07619857133782,-77.66723615082988,461.25992363026035,5.1973890068393676,14508002.179731311,0.09119975151021956,Medium,0.001493135338356717,0.002620632018995822,0.002620632018995823
NORTHER TIER LANDFILL,BURLINGTON,PA,41.7788810576622,-76.62561779660689,1180.3677015612645,13.522512543047796,14508002.179731311,0.09119975151021956,Low,0.0007558081494166262,0.0013303094383506678,0.001330309438350666
TALENENERGY MARTINS CREEK LLC FISHBACH,POTTSVILLE,PA,40.68906018845934,-76.2196424520603,1344.827823627179,14.755755952784526,14508002.179731311,0.09119975151021956,Low,0.0007558081494166262,0.0013303094383506678,0.001330309438350666
ROUTE 5 & 20 COMMUNITY SOLAR FARM,E BLOOMFIELD,NY,42.898998252754,-77.46099835646424,256.3558153978008,3.250635426158203,14508002.179731311,0.09119975151021956,Medium,0.001493135338356717,0.002620632018995822,0.002620632018995823
LOCUST RIDGE II LLC,SHENANDOAH,PA,40.829605080769326,-76.24262218854408,296.52222153693947,3.6518533640681863,14508002.179731311,0.09119975151021956,Medium,0.001493135338356717,0.002620632018995822,0.002620632018995823
HICKORY GROVE #2,HORSEHEADS,NY,42.18600081139809,-76.8450010378389,221.37220231819856,2.6656498295592446,14508002.179731311,0.09119975151021956,Medium,0.001493135338356717,0.002620632018995822,0.002620632018995823
HICKORY GROVE #1,HORSEHEADS,NY,42.18682860071034,-76.84506207299556,761.5822510150421,9.031364902235735,14508002.179731311,0.09119975151021956,Medium,0.001493135338356717,0.002620632018995822,0.002620632018995823
STATE ROUTE 64N COMMUNITY SOLAR FARM,EAST BLOOMFIELD,NY,42.91500090789175,-77.45400220163171,1095.870285070419,12.89558707089841,14508002.179731311,0.09119975151021956,Low,0.0007558081494166262,0.0013303094383506678,0.001330309438350666
WATKINS GLEN WIND ENERGY CENTER,TOWN OF DIX,NY,42.33833311833875,-76.92749768146408,-203.4289508325553,-2.0795800446145734,14508002.179731311,0.09119975151021956,High,0.0026114149082491884,0.0045776212663076535,0.004577621266307653
JOHN B RICH MEMORIAL POWER STATION,FRACKVILLE,PA,40.79052732171541,-76.19824200025519,846.1723071568739,9.974113456432812,14508002.179731311,0.09119975151021956,Medium,0.001493135338356717,0.002620632018995822,0.002620632018995823
MONROE COMMUNITY COLLEGE PLANT,ROCHESTER,NY,43.104141228997904,-77.61001569145795,268.2021390114635,3.211624665237961,14508002.179731311,0.09119975151021956,Medium,0.001493135338356717,0.002620632018995822,0.002620632018995823
UNIVERSITY OF ROCHESTER,ROCHESTER,NY,43.12366103503841,-77.62861615545111,176.5783608809088,2.2195527919793836,14508002.179731311,0.09119975151021956,High,0.0026114149082491884,0.0045776212663076535,0.004577621266307653
ROCHESTER 9,ROCHESTER,NY,43.151050561591234,-77.6599424496086,1548.7137995002624,18.19400380248744,14508002.179731311,0.09119975151021956,Low,0.0007558081494166262,0.0013303094383506678,0.001330309438350666
IOLA POWERHOUSE & COGENERATION FACILITY,ROCHESTER,NY,43.112106316942516,-77.61381512996023,510.21845401150654,6.154258759374357,14508002.179731311,0.09119975151021956,Medium,0.001493135338356717,0.002620632018995822,0.002620632018995823
DAUM SOLAR,RUSHVILLE,NY,42.76079939927827,-77.24732953177485,54.32076845390429,0.8517246086229271,14508002.179731311,0.09119975151021956,High,0.0026114149082491884,0.0045776212663076535,0.004577621266307653
WHEELABRATOR FRACKVILLE ENERGY,FRACKVILLE,PA,40.7823791283008,-76.17617779112138,122.80722887472302,1.5719239648914023,14508002.179731311,0.09119975151021956,High,0.0026114149082491884,0.0045776212663076535,0.004577621266307653
CITY OF ROCHESTER SOLAR,ROCHESTER,NY,43.17807387720408,-77.6764295713023,1762.0398687840288,20.662238244975548,14508002.179731311,0.09119975151021956,Low,0.0007558081494166262,0.0013303094383506678,0.001330309438350666
MARTIN LIMESTONE SOLAR ARRAY,NEW HOLLAND,PA,40.10584637835415,-76.05934887187306,182.50150856584196,2.393109426962818,14508002.179731311,0.09119975151021956,High,0.0026114149082491884,0.0045776212663076535,0.004577621266307653
BREESPORT ROAD COMMUNITY SOLAR FARM,BALDWIN,NY,42.088001237979974,-76.71299725276513,101.33578674256933,1.382170169925649,14508002.179731311,0.09119975151021956,High,0.0026114149082491884,0.0045776212663076535,0.004577621266307653
ST NICHOLAS COGEN PROJECT,SHENANDOAH,PA,40.822570778963836,-76.17351513241194,754.5485290263192,9.041712623817928,14508002.179731311,0.09119975151021956,Medium,0.001493135338356717,0.002620632018995822,0.002620632018995823
MILAN,MILAN,PA,41.894443497410286,-76.58277874602378,661.351458481576,7.419520240257687,14508002.179731311,0.09119975151021956,Medium,0.001493135338356717,0.002620632018995822,0.002620632018995823
BURRITT RD COMMUNITY SOLAR FARM,PARMA,NY,43.27500152068328,-77.76399976232511,622.203071726629,7.224876529286416,14508002.179731311,0.09119975151021956,Medium,0.001493135338356717,0.002620632018995822,0.002620632018995823
ROCHESTER 26,ROCHESTER,NY,43.15256499641595,-77.60991650932836,1529.5561456266746,17.40532474384866,14508002.179731311,0.09119975151021956,Low,0.0007558081494166262,0.0013303094383506678,0.001330309438350666
ROCHESTER 3,ROCHESTER,NY,43.16231154799568,-77.61838513731541,727.1539674530285,8.491968267270599,14508002.179731311,0.09119975151021956,Medium,0.001493135338356717,0.002620632018995822,0.002620632018995823
ROCHESTER 2,ROCHESTER,NY,43.161342614883644,-77.6150358330935,1063.1078205983958,12.254397548932301,14508002.179731311,0.09119975151021956,Low,0.0007558081494166262,0.0013303094383506678,0.001330309438350666
ROCHESTER 5,ROCHESTER,NY,43.180282586935846,-77.62749463444743,622.6658180808237,7.289080577010098,14508002.179731311,0.09119975151021956,Medium,0.001493135338356717,0.002620632018995822,0.002620632018995823
CANANDAIGUA SOLAR ARRAY,CANANDAIGUA,NY,42.86886977354589,-77.28456097733954,23.686954157454466,0.4375750955362854,14508002.179731311,0.09119975151021956,High,0.0026114149082491884,0.0045776212663076535,0.004577621266307653
CANANDAIGUA WESTBROOK SOLAR ARRAY,CANANDAIGUA,NY,42.8690872112915,-77.28446179520995,827.3848729616788,9.593587884886134,14508002.179731311,0.09119975151021956,Medium,0.001493135338356717,0.002620632018995822,0.002620632018995823
TURNER RD COMMUNITY SOLAR PROJECT,BALDWIN,NY,42.0947494374886,-76.67672711091791,931.8729093586994,10.833192361088647,14508002.179731311,0.09119975151021956,Medium,0.001493135338356717,0.002620632018995822,0.002620632018995823
VULCRAFT SOLAR,CHEMUNG,NY,42.004672990344886,-76.61776714958107,358.99297935322693,4.413635467190056,14508002.179731311,0.09119975151021956,Medium,0.001493135338356717,0.002620632018995822,0.002620632018995823
"RED-ROCHESTER, LLC",ROCHESTER,NY,43.19940184976074,-77.63140088447388,907.1622992347749,10.27844336780974,14508002.179731311,0.09119975151021956,Medium,0.001493135338356717,0.002620632018995822,0.002620632018995823
LOCUST RIDGE,MAHANOY CITY,PA,40.85511396155745,-76.12928753201473,1260.9782068421323,14.716263892266436,14508002.179731311,0.09119975151021956,Low,0.0007558081494166262,0.0013303094383506678,0.001330309438350666
"MONROE COUNTY SITES C, D, & E",HILTON,NY,43.317020411348935,-77.74391919578285,1073.1031870390755,12.472278140761793,14508002.179731311,0.09119975151021956,Low,0.0007558081494166262,0.0013303094383506678,0.001330309438350666
ROCHESTER 7,ROCHESTER,NY,43.268943781384415,-77.63141614326304,549.5518941180578,6.244880221189151,14508002.179731311,0.09119975151021956,Medium,0.001493135338356717,0.002620632018995822,0.002620632018995823
MOXIE FREEDOM GENERATION PLANT,SALEM TOWNSHIP,PA,41.11305616301273,-76.15805797898693,245.80520417092043,3.0521487906353606,14508002.179731311,0.09119975151021956,Medium,0.001493135338356717,0.002620632018995822,0.002620632018995823
TALENENERGY SUSQUEHANNA,BERWICK,PA,41.09190366653148,-76.14627056435631,509.848290820706,5.74577385685141,14508002.179731311,0.09119975151021956,Medium,0.001493135338356717,0.002620632018995822,0.002620632018995823
LANCHESTER GENERATING STATION,NARVON,PA,40.111927005836776,-75.95313244048957,464.314038270427,5.232855292913005,14508002.179731311,0.09119975151021956,Medium,0.001493135338356717,0.002620632018995822,0.002620632018995823
HIGH ACRES GAS RECOVERY,FAIRPORT,NY,43.081661217859214,-77.38163739401267,22.76146144906511,0.4522866001389527,14508002.179731311,0.09119975151021956,High,0.0026114149082491884,0.0045776212663076535,0.004577621266307653
PANDA LIBERTY GENERATION PLANT,TOWANDA,PA,41.767501815641715,-76.38999920370243,977.6847984239768,11.44802424681324,14508002.179731311,0.09119975151021956,Medium,0.001493135338356717,0.002620632018995822,0.002620632018995823
WOLF RUN ENERGY,WILMOT TOWNSHIP,PA,41.612483961807854,-76.29918651998187,150.5720101264062,1.9220740375263237,14508002.179731311,0.09119975151021956,High,0.0026114149082491884,0.0045776212663076535,0.004577621266307653
GRANGER ENERGY OF MORGANTOWN,MORGANTOWN,PA,40.174564335362874,-75.91368847049586,1615.6269675068927,18.333495414518637,14508002.179731311,0.09119975151021956,Low,0.0007558081494166262,0.0013303094383506678,0.001330309438350666
HAZLE SPINDLE,HAZEL TOWHSHIP,PA,40.94746396828688,-76.05337505591461,495.4105706772755,5.526211573459031,14508002.179731311,0.09119975151021956,Medium,0.001493135338356717,0.002620632018995822,0.002620632018995823
YELLOW MILLS RD #3 COMMUNITY SOLAR FARM,FARMINGTON,NY,43.015300743776635,-77.26065808411123,-107.17770916005338,-0.9606037525517692,14508002.179731311,0.09119975151021956,High,0.0026114149082491884,0.0045776212663076535,0.004577621266307653
YELLOW MILLS RD #2 COMMUNITY SOLAR FARM,FARMINGTON,NY,43.01641845008304,-77.26090985413246,910.8642700683328,10.147486801980353,14508002.179731311,0.09119975151021956,Medium,0.001493135338356717,0.002620632018995822,0.002620632018995823
YELLOW MILLS RD #1 COMMUNITY SOLAR FARM,FARMINGTON,NY,43.01784896156734,-77.2604902374304,414.3374320173971,5.06558192528228,14508002.179731311,0.09119975151021956,Medium,0.001493135338356717,0.002620632018995822,0.002620632018995823
FREY RD #1 COMMUNITY SOLAR FARM,MACEDON,NY,43.099864953334155,-77.34513074093337,328.08150029798276,4.095906087100482,14508002.179731311,0.09119975151021956,Medium,0.001493135338356717,0.002620632018995822,0.002620632018995823
EVERGREEN COMMUNITY POWER,READING,PA,40.325508092489436,-75.92258434457953,910.6792167167284,10.262857172613725,14508002.179731311,0.09119975151021956,Medium,0.001493135338356717,0.002620632018995822,0.002620632018995823
FREY RD #2 COMMUNITY SOLAR FARM,MACEDON,NY,43.0998916562152,-77.34349805049263,23.686954157454466,0.4390875630396547,14508002.179731311,0.09119975151021956,High,0.0026114149082491884,0.0045776212663076535,0.004577621266307653
ONTELAUNEE ENERGY CENTER,READING,PA,40.42203519275304,-75.93585949115383,845.6170341268771,9.600224105277261,14508002.179731311,0.09119975151021956,Medium,0.001493135338356717,0.002620632018995822,0.002620632018995823
GREENIDGE GENERATION LLC,DRESDEN,NY,42.67938231498621,-76.94828778170253,1758.7082306040477,19.87762583828131,14508002.179731311,0.09119975151021956,Low,0.0007558081494166262,0.0013303094383506678,0.001330309438350666
HAZELTON,HAZELTON,PA,40.92826841151616,-76.04081707243112,324.56463930362133,3.762440627647891,14508002.179731311,0.09119975151021956,Medium,0.001493135338356717,0.002620632018995822,0.002620632018995823
ROMARK PA SOLAR,HAZLE TOWNSHIP,PA,40.93615720551494,-76.03973369840035,440.4363376914978,5.3908674892865385,14508002.179731311,0.09119975151021956,Medium,0.001493135338356717,0.002620632018995822,0.002620632018995823
TEMPLE SOLAR ARRAYS,READING,PA,40.4244270079548,-75.92543773815355,467.2756262347916,5.238714840802404,14508002.179731311,0.09119975151021956,Medium,0.001493135338356717,0.002620632018995822,0.002620632018995823
TITUS,BIRSBORO,PA,40.30590817780581,-75.9080808654774,53.11763923051626,0.8943152276022222,14508002.179731311,0.09119975151021956,High,0.0026114149082491884,0.0045776212663076535,0.004577621266307653
TALENENERGY MARTINS CREEK LLC HARWOOD,WEST HAZLETON,PA,40.93529126922977,-76.02838115926096,178.52190121728586,2.2513866946040704,14508002.179731311,0.09119975151021956,High,0.0026114149082491884,0.0045776212663076535,0.004577621266307653
ONTARIO LFGTE,STANLEY,NY,42.85904311332304,-77.0843122577215,537.1503257181945,6.046672695478757,14508002.179731311,0.09119975151021956,Medium,0.001493135338356717,0.002620632018995822,0.002620632018995823
ROUTE 14A CDG SOLAR NORTH AND SOUTH LLC,GENEVA,NY,42.817333213138,-77.04156475987338,1041.1736885996397,11.817489158012698,14508002.179731311,0.09119975151021956,Medium,0.001493135338356717,0.002620632018995822,0.002620632018995823
FINGER LAKES SOLAR I,GENEVA,NY,42.81726073388946,-77.03996258701096,803.1368962167649,9.487876032392558,14508002.179731311,0.09119975151021956,Medium,0.001493135338356717,0.002620632018995822,0.002620632018995823
MONROE COUNTY SITES A & B,WEBSTER,NY,43.173015588595575,-77.3921735879317,205.73138119517603,2.6636090313557723,14508002.179731311,0.09119975151021956,Medium,0.001493135338356717,0.002620632018995822,0.002620632018995823
KLINE TOWNSHIP COGEN FACILITY,MCADOO,PA,40.8734512114376,-75.99343090267658,1219.9788346704063,14.329081002264065,14508002.179731311,0.09119975151021956,Low,0.0007558081494166262,0.0013303094383506678,0.001330309438350666
MORGANTOWN SOLAR PARK,MORGANTOWN,PA,40.152069065435015,-75.86592083101216,1467.9183538429747,16.976656026226983,14508002.179731311,0.09119975151021956,Low,0.0007558081494166262,0.0013303094383506678,0.001330309438350666
SECCRA COMMUNITY LANDFILL,WEST GROVE,PA,39.86351391821561,-75.8387372981132,563.3417580680973,6.369380779262219,14508002.179731311,0.09119975151021956,Medium,0.001493135338356717,0.002620632018995822,0.002620632018995823
HUNLOCK POWER STATION,HUNLOK CREEK,PA,41.201312999548406,-76.06931286119836,272.92215747300884,3.192639483932222,14508002.179731311,0.09119975151021956,Medium,0.001493135338356717,0.002620632018995822,0.002620632018995823
BLACK OAK WIND FARM,ENFIELD,NY,42.40222166857646,-76.67040234280867,1260.052714133743,14.611580570420314,14508002.179731311,0.09119975151021956,Low,0.0007558081494166262,0.0013303094383506678,0.001330309438350666
HUNLOCK UNIT 4,HUNLOCK GREEN,PA,41.202922801805414,-76.0684888865834,536.7801060398019,6.466975151415128,14508002.179731311,0.09119975151021956,Medium,0.001493135338356717,0.002620632018995822,0.002620632018995823
CORNELL GENEVA SOLAR FARM,SENECA,NY,42.86257170831766,-77.03332501372381,567.2288387408513,6.342032413072259,14508002.179731311,0.09119975151021956,Medium,0.001493135338356717,0.002620632018995822,0.002620632018995823
MARLBORO MUSHROOMS SOLAR FIELD,WEST GROVE,PA,39.88277813953758,-75.8294446955112,418.4096225293474,4.751112635710721,14508002.179731311,0.09119975151021956,Medium,0.001493135338356717,0.002620632018995822,0.002620632018995823
MAIDENCREEK BIOMASS PLANT,MAIDENCREEK TOWNSHIP,PA,40.482112860396555,-75.8881071104593,512.5321857824802,5.777656548750397,14508002.179731311,0.09119975151021956,Medium,0.001493135338356717,0.002620632018995822,0.002620632018995823
PASTO SOLAR,SPENCER,NY,42.210029589637124,-76.52376537892485,734.557909120144,8.310495023102861,14508002.179731311,0.09119975151021956,Medium,0.001493135338356717,0.002620632018995822,0.002620632018995823
HARBEC ENERGY,ONTARIO,NY,43.22688292904856,-77.36132794563292,200.17842494483943,2.603723493722356,14508002.179731311,0.09119975151021956,Medium,0.001493135338356717,0.002620632018995822,0.002620632018995823
"PIONEER CROSSING ENERGY, LLC",BIRDSBORO,PA,40.275310490830854,-75.81723766417852,516.6969029702326,6.263639916929869,14508002.179731311,0.09119975151021956,Medium,0.001493135338356717,0.002620632018995822,0.002620632018995823
PODUNK ROAD,ENFIELD,NY,42.46805952913011,-76.65289288224085,1082.8208604771646,12.625218010779939,14508002.179731311,0.09119975151021956,Low,0.0007558081494166262,0.0013303094383506678,0.001330309438350666
BIRDSBORO POWER,BIRDSBORO,PA,40.26852032965202,-75.79966716845404,768.9861926821577,9.118695065978681,14508002.179731311,0.09119975151021956,Medium,0.001493135338356717,0.002620632018995822,0.002620632018995823
ZOTOS INTERNATIONAL WPGF,GENEVA,NY,42.88624571970858,-76.96759014999733,286.5269115838521,3.493370856672099,14508002.179731311,0.09119975151021956,Medium,0.001493135338356717,0.002620632018995822,0.002620632018995823
NEWFIELD COMMUNITY SOLAR LLC,NEWFIELD,NY,42.391311634322825,-76.56423931718727,1384.3463170853345,16.150654491376024,14508002.179731311,0.09119975151021956,Low,0.0007558081494166262,0.0013303094383506678,0.001330309438350666
MEHOOPANY WIND ENERGY LLC,NOXEN,PA,41.48421095068455,-76.08129101069355,1021.8308683992636,11.890935037101055,14508002.179731311,0.09119975151021956,Medium,0.001493135338356717,0.002620632018995822,0.002620632018995823
PANTHER CREEK ENERGY FACILITY,NESQUEHONING,PA,40.85561750159992,-75.87755565775112,1280.5986070699148,14.013981408013683,14508002.179731311,0.09119975151021956,Low,0.0007558081494166262,0.0013303094383506678,0.001330309438350666
ENFIELD COMMUNITY SOLAR,ITHACA,NY,42.45330809470396,-76.59481030128104,1344.6426573003905,15.692342993043145,14508002.179731311,0.09119975151021956,Low,0.0007558081494166262,0.0013303094383506678,0.001330309438350666
FURNACE RD COMMUNITY SOLAR FARM,ONTARIO,NY,43.241001123724324,-77.26999646308073,23.686954157454466,0.4741597988032744,14508002.179731311,0.09119975151021956,High,0.0026114149082491884,0.0045776212663076535,0.004577621266307653
R E GINNA NUCLEAR POWER PLANT,ONTARIO,NY,43.278045649121886,-77.30872326998366,23.686954157454466,0.4825706741042719,14508002.179731311,0.09119975151021956,High,0.0026114149082491884,0.0045776212663076535,0.004577621266307653
PA SOLAR PARK,NESQUEHONING,PA,40.86014173258762,-75.85221080894664,599.4359736952855,7.04434742350788,14508002.179731311,0.09119975151021956,Medium,0.001493135338356717,0.002620632018995822,0.002620632018995823
CAYUGA OPERATING COMPANY,LANSING,NY,42.60195158936376,-76.63442974735017,1249.316908336278,14.503043335447327,14508002.179731311,0.09119975151021956,Low,0.0007558081494166262,0.0013303094383506678,0.001330309438350666
PROCTER & GAMBLE MEHOOPANY MILL,MEHOOPANY,PA,41.57426069494722,-76.04322796111933,145.4818002302643,1.8574651706888368,14508002.179731311,0.09119975151021956,High,0.0026114149082491884,0.0045776212663076535,0.004577621266307653
WATERLOO HYDROELECTRIC PROJECT,WATERLOO,NY,42.90191268148469,-76.86232739293672,44.23290358121858,0.7807406099432797,14508002.179731311,0.09119975151021956,High,0.0026114149082491884,0.0045776212663076535,0.004577621266307653
LONGWOOD GARDENS,KENNETT SQUARE,PA,39.86705777199939,-75.66719036091614,324.2870027886229,3.7212101745184025,14508002.179731311,0.09119975151021956,Medium,0.001493135338356717,0.002620632018995822,0.002620632018995823
TOWN OF WILLIAMSON LANDFILL PV,WILLIAMSON,NY,43.24512099679912,-77.1735914331309,579.3527706257163,7.016776648553983,14508002.179731311,0.09119975151021956,Medium,0.001493135338356717,0.002620632018995822,0.002620632018995823
AQUA INGRAMS MILL,WEST CHESTER,PA,39.96469876387211,-75.65779857618455,23.686954157454466,0.4692791132010026,14508002.179731311,0.09119975151021956,High,0.0026114149082491884,0.0045776212663076535,0.004577621266307653
CORNELL HYDRO,ITHACA,NY,42.452075947478804,-76.48507671899483,1565.4653079022587,17.986905200735734,14508002.179731311,0.09119975151021956,Low,0.0007558081494166262,0.0013303094383506678,0.001330309438350666
ROUNDTOP,MESHOPPEN,PA,41.65777967744688,-76.04916363010484,473.47643867851934,5.42653552560256,14508002.179731311,0.09119975151021956,Medium,0.001493135338356717,0.002620632018995822,0.002620632018995823
CORNELL UNIVERSITY CENTRAL HEAT,ITHACA,NY,42.442916859281965,-76.47471600115122,908.1803186189665,10.696907654871048,14508002.179731311,0.09119975151021956,Medium,0.001493135338356717,0.002620632018995822,0.002620632018995823
SENECA ENERGY,SENECA FALLS,NY,42.92707823951658,-76.84069042989955,1111.4184947862511,12.544870427321367,14508002.179731311,0.09119975151021956,Low,0.0007558081494166262,0.0013303094383506678,0.001330309438350666
STOWE POWER PRODUCTION PLANT,POTTSTOWN,PA,40.27244183846766,-75.67034893027346,224.70398171715965,2.7531615245660355,14508002.179731311,0.09119975151021956,Medium,0.001493135338356717,0.002620632018995822,0.002620632018995823
FLOREY KNOBB,MESHOPPEN,PA,41.59944532646557,-76.00917034370116,330.9505615865453,3.7103560993866953,14508002.179731311,0.09119975151021956,Medium,0.001493135338356717,0.002620632018995822,0.002620632018995823
MUSGRAVE WEST SOLAR FARM,AURORA,NY,42.73174285000906,-76.6670377797976,752.5124902579361,8.439340903389912,14508002.179731311,0.09119975151021956,Medium,0.001493135338356717,0.002620632018995822,0.002620632018995823
MUSGRAVE EAST SOLAR FARM,AURORA,NY,42.7306098849135,-76.66221600242119,-203.4289508325553,-2.0795800446145734,14508002.179731311,0.09119975151021956,High,0.0026114149082491884,0.0045776212663076535,0.004577621266307653
WEST STATION (DE),WILMINGTON,DE,39.728797883367,-75.62728862724744,808.8750187938898,9.682150527233976,14508002.179731311,0.09119975151021956,Medium,0.001493135338356717,0.002620632018995822,0.002620632018995823
SUNEAST DOG CORNERS SOLAR PROJECT,LEDYARD,NY,42.744300833492616,-76.66531353662185,1198.3222826990566,14.03578625773968,14508002.179731311,0.09119975151021956,Low,0.0007558081494166262,0.0013303094383506678,0.001330309438350666
ELLIS SOLAR,ITHACA,NY,42.44462965836584,-76.43323498280387,509.848290820706,5.696258457493785,14508002.179731311,0.09119975151021956,Medium,0.001493135338356717,0.002620632018995822,0.002620632018995823
SENECA FALLS HYDROELECTRIC PROJECT,SENECA FALLS,NY,42.91529845428049,-76.78672009261993,1638.7642852166289,19.250090280431642,14508002.179731311,0.09119975151021956,Low,0.0007558081494166262,0.0013303094383506678,0.001330309438350666
CORNELL SNYDER ROAD SOLAR ARRAY,LANSING,NY,42.49938582328774,-76.46133404305277,-203.4289508325553,-2.0795800446145734,14508002.179731311,0.09119975151021956,High,0.0026114149082491884,0.0045776212663076535,0.004577621266307653
MOSER GENERATING STATION,POTTSTOWN,PA,40.23519894881094,-75.61928539232994,363.8055527343704,4.2063096217012825,14508002.179731311,0.09119975151021956,Medium,0.001493135338356717,0.002620632018995822,0.002620632018995823
GASKILL RD COMMUNITY SOLAR FARM,OWEGO,NY,42.11600111609943,-76.18299846987851,821.3691703571473,9.645135731130006,14508002.179731311,0.09119975151021956,Medium,0.001493135338356717,0.002620632018995822,0.002620632018995823
TALENENERGY MARTINS CREEK LLC JENKINS,LAFLIN,PA,41.282379131689645,-75.81642894835272,717.8065136933319,8.356046623580689,14508002.179731311,0.09119975151021956,Medium,0.001493135338356717,0.002620632018995822,0.002620632018995823
LIMERICK,SANATOGA,PA,40.22427747046544,-75.58740978176249,546.4977794778911,6.105118729748751,14508002.179731311,0.09119975151021956,Medium,0.001493135338356717,0.002620632018995822,0.002620632018995823
SOUTH CAMPUS SOLAR,WILMINGTON,DE,39.78084179851466,-75.54767589477461,763.0631297286126,8.621169298311127,14508002.179731311,0.09119975151021956,Medium,0.001493135338356717,0.002620632018995822,0.002620632018995823
WHA SOUTHBRIDGE SOLAR PARK,WILMINGTON,DE,39.72366330081267,-75.54704265502423,1344.827823627179,14.755755952784526,14508002.179731311,0.09119975151021956,Low,0.0007558081494166262,0.0013303094383506678,0.001330309438350666
CHRISTIANA,WILMINGTON,DE,39.73060986458045,-75.53703288933144,482.1760362448248,5.42417517962956,14508002.179731311,0.09119975151021956,Medium,0.001493135338356717,0.002620632018995822,0.002620632018995823
WIND PARK BEAR CREEK,BEAR CREEK,PA,41.23236082080376,-75.76764659938951,1138.0727299779408,13.431339015210266,14508002.179731311,0.09119975151021956,Low,0.0007558081494166262,0.0013303094383506678,0.001330309438350666
TREXLERTOWN SOLAR ARRAY NORTH AND SOUTH,ALLENTOWN,PA,40.55659101031541,-75.59317760406718,23.686954157454466,0.46542563961714833,14508002.179731311,0.09119975151021956,High,0.0026114149082491884,0.0045776212663076535,0.004577621266307653
DD HAY ROAD SOLAR 23 LLC,NEW CASTLE,DE,39.73599240245873,-75.51273326758482,1985.638997511065,22.50458277864991,14508002.179731311,0.09119975151021956,Low,0.0007558081494166262,0.0013303094383506678,0.001330309438350666
CROMBY GENERATING STATION,PHEONIXVILLE,PA,40.15309903370371,-75.52940349474851,41.91917181024496,0.6581520639712455,14508002.179731311,0.09119975151021956,High,0.0026114149082491884,0.0045776212663076535,0.004577621266307653
HAY ROAD,WILMINGTON,DE,39.743820161300846,-75.50646953463223,23.686954157454466,0.4932939851899878,14508002.179731311,0.09119975151021956,High,0.0026114149082491884,0.0045776212663076535,0.004577621266307653
EDGE MOOR,WILMINGTON,DE,39.73838421766049,-75.50366191742572,23.686954157454466,0.4720985618497586,14508002.179731311,0.09119975151021956,High,0.0026114149082491884,0.0045776212663076535,0.004577621266307653
OXBOW CREEK,FACTORYVILLE,PA,41.608612044057,-75.87055950291858,942.9788218593727,11.055643321154127,14508002.179731311,0.09119975151021956,Medium,0.001493135338356717,0.002620632018995822,0.002620632018995823
DRYDEN RD #2 COMMUNITY SOLAR FARM,DRYDEN,NY,42.48781966109997,-76.31998424961493,363.8055527343704,4.212210486633783,14508002.179731311,0.09119975151021956,Medium,0.001493135338356717,0.002620632018995822,0.002620632018995823
PICKERING SOLAR,PHOENIXVILLE,PA,40.119640323760144,-75.48808269368739,1207.7623761097393,14.123512010193185,14508002.179731311,0.09119975151021956,Low,0.0007558081494166262,0.0013303094383506678,0.001330309438350666
TOMPKINS CORTLAND COMMUNITY COLLEGE,DRYDEN,NY,42.50572585018618,-76.28761272839958,330.9505615865453,3.7118804345513805,14508002.179731311,0.09119975151021956,Medium,0.001493135338356717,0.002620632018995822,0.002620632018995823
AUBURN STATE STREET,AUBURN,NY,42.928390495384846,-76.59217816014994,497.8168856116432,5.533925553314927,14508002.179731311,0.09119975151021956,Medium,0.001493135338356717,0.002620632018995822,0.002620632018995823
HARFORD SOLAR FARM,HARFORD,NY,42.4437065016213,-76.23526745216613,531.5047863044637,6.500878862082059,14508002.179731311,0.09119975151021956,Medium,0.001493135338356717,0.002620632018995822,0.002620632018995823
AUBURN LFG ENERGY FACILITY,AUBURN,NY,42.94419860096074,-76.59378033301235,1143.5331595524754,13.221844024958596,14508002.179731311,0.09119975151021956,Low,0.0007558081494166262,0.0013303094383506678,0.001330309438350666
TAYLOR ENERGY PARTNERS LP,TAYLOR,PA,41.387779217853236,-75.71721630119637,972.3170085004285,11.063230712622644,14508002.179731311,0.09119975151021956,Medium,0.001493135338356717,0.002620632018995822,0.002620632018995823
MARCUS HOOK REFINERY COGEN,MARCUS HOOK,PA,39.81034466736696,-75.42800121134685,1070.7894552681018,12.46051157433773,14508002.179731311,0.09119975151021956,Low,0.0007558081494166262,0.0013303094383506678,0.001330309438350666
PEDRICKTOWN COGENERATION COMPANY LP,PEDRICKTOWN,NJ,39.76679989778472,-75.42379741493167,892.3544159005439,10.664436854422362,14508002.179731311,0.09119975151021956,Medium,0.001493135338356717,0.002620632018995822,0.002620632018995823
MARCUS HOOK ENERGY LP,MARCUS HOOK,PA,39.80694195738296,-75.42180614294551,545.9425064478942,6.175472863292586,14508002.179731311,0.09119975151021956,Medium,0.001493135338356717,0.002620632018995822,0.002620632018995823
VICTORY MILLS,VICTORY MILLS,NY,42.92146681980081,-76.54855328192477,813.502482335837,9.243585938246166,14508002.179731311,0.09119975151021956,Medium,0.001493135338356717,0.002620632018995822,0.002620632018995823
LOGAN GENERATING COMPANY LP,SWEDESBORO,NJ,39.79236218433493,-75.40673808864425,1179.9975948580561,13.794259130965035,14508002.179731311,0.09119975151021956,Low,0.0007558081494166262,0.0013303094383506678,0.001330309438350666
AES ADA ENERGY STORAGE ARRAY,NORRISTOWN,PA,40.121829960005456,-75.41725139437952,618.0383545388765,6.965134740105599,14508002.179731311,0.09119975151021956,Medium,0.001493135338356717,0.002620632018995822,0.002620632018995823
COVANTA DELAWARE VALLEY,CHESTER,PA,39.82646176342347,-75.38843517103982,324.2870027886229,3.6986884301402707,14508002.179731311,0.09119975151021956,Medium,0.001493135338356717,0.002620632018995822,0.002620632018995823
NORTHAMPTON GENERATING COMPANY LP,NORTHAMPTON,PA,40.69218824023835,-75.47881297926914,25.075193220038727,0.59107164677879,14508002.179731311,0.09119975151021956,High,0.0026114149082491884,0.0045776212663076535,0.004577621266307653
AES JOHNSON CITY,JOHNSON CITY,NY,42.11249922398586,-75.97611217697334,534.0962110780277,5.951570532202367,14508002.179731311,0.09119975151021956,Medium,0.001493135338356717,0.002620632018995822,0.002620632018995823
GMMM WESTOVER,JOHNSON CITY,NY,42.111560808452154,-75.97409038740886,-103.1980876895991,-0.9089829421679454,14508002.179731311,0.09119975151021956,High,0.0026114149082491884,0.0045776212663076535,0.004577621266307653
CHESTER GENERATING STATION,CHESTER,PA,39.83015057570432,-75.3837049463984,1520.9490182485793,17.291034769938125,14508002.179731311,0.09119975151021956,Low,0.0007558081494166262,0.0013303094383506678,0.001330309438350666
TALENENERGY MARTIN CREEK LLC ALLENTOWN,ALLENTOWN,PA,40.60839078483641,-75.45599346007161,-203.4289508325553,-2.0795800446145734,14508002.179731311,0.09119975151021956,High,0.0026114149082491884,0.0045776212663076535,0.004577621266307653
CHESTER OPERATIONS,CHESTER,PA,39.843734712759286,-75.35828380364809,324.56463930362133,3.775771088107698,14508002.179731311,0.09119975151021956,Medium,0.001493135338356717,0.002620632018995822,0.002620632018995823
BROOME COUNTY,CONKLIN,NY,42.1047325003004,-75.9307325379941,1787.953664618933,20.967796239527253,14508002.179731311,0.09119975151021956,Low,0.0007558081494166262,0.0013303094383506678,0.001330309438350666
BRIDGEPORT DISPOSAL SOLAR FARM,GLOUCESTER,NJ,39.78742215134246,-75.34915904772691,105.0377575761272,1.4079262915556097,14508002.179731311,0.09119975151021956,High,0.0026114149082491884,0.0045776212663076535,0.004577621266307653
BINGHAMTON COGEN,BINGHAMTON,NY,42.10717390656695,-75.92781810926343,1174.351998956733,13.691267170628057,14508002.179731311,0.09119975151021956,Low,0.0007558081494166262,0.0013303094383506678,0.001330309438350666
HOP BOTTOM,LENOX,PA,41.66805647195013,-75.72499828367096,1104.1071927701219,12.455062120078276,14508002.179731311,0.09119975151021956,Low,0.0007558081494166262,0.0013303094383506678,0.001330309438350666
POCONO SOLAR PROJECT,LONG POND,PA,41.06088254815716,-75.51540355568883,690.9672251500381,8.090261117988558,14508002.179731311,0.09119975151021956,Medium,0.001493135338356717,0.002620632018995822,0.002620632018995823
LIBERTY ELECTRIC POWER PLANT,EDDYSTONE,PA,39.86227032689858,-75.33551006081805,403.5091560317221,4.545044322778513,14508002.179731311,0.09119975151021956,Medium,0.001493135338356717,0.002620632018995822,0.002620632018995823
EDDYSTONE GENERATING STATION,EDDYSTONE,PA,39.85932156589227,-75.32415752167867,751.216777871154,8.948584887750238,14508002.179731311,0.09119975151021956,Medium,0.001493135338356717,0.002620632018995822,0.002620632018995823
NANTICOKE LFG,BINGHAMTON,NY,42.241752612313064,-75.973136713086,595.1787298317308,6.72565236742153,14508002.179731311,0.09119975151021956,Medium,0.001493135338356717,0.002620632018995822,0.002620632018995823
KEYSTONE RECOVERY,THROOP,PA,41.435787183266505,-75.59474162995667,1028.9571170637887,12.280763976034052,14508002.179731311,0.09119975151021956,Low,0.0007558081494166262,0.0013303094383506678,0.001330309438350666
COVANTA PLYMOUTH RENEWABLE ENERGY,CONSHOHOCKEN,PA,40.09638592907128,-75.30998210654359,324.56463930362133,3.7399421790493825,14508002.179731311,0.09119975151021956,Medium,0.001493135338356717,0.002620632018995822,0.002620632018995823
IKEA CONSHOHOCKEN ROOFTOP PV SYSTEM,CONSHOHOCKEN,PA,40.09462353892262,-75.30641154987879,1314.0088712477368,15.126315326083194,14508002.179731311,0.09119975151021956,Low,0.0007558081494166262,0.0013303094383506678,0.001330309438350666
WEST POINT (PA),WEST POINT,PA,40.212799046315375,-75.30037669876369,326.6932612353985,3.934684787198293,14508002.179731311,0.09119975151021956,Medium,0.001493135338356717,0.002620632018995822,0.002620632018995823
MERCK - UPPER GWYNEDD SOLAR ARRAY,NORTH WALES,PA,40.21540066986816,-75.28308849063879,904.4783477854088,10.590326386300267,14508002.179731311,0.09119975151021956,Medium,0.001493135338356717,0.002620632018995822,0.002620632018995823
PAULSBORO REFINERY,PAULSBORO,NJ,39.83941266072804,-75.25676707932769,998.4158576869371,11.653082489904488,14508002.179731311,0.09119975151021956,Medium,0.001493135338356717,0.002620632018995822,0.002620632018995823
MICKLETON STATION,MICKLETON,NJ,39.8128814410658,-75.24884013835603,735.2982919893371,8.154444067647676,14508002.179731311,0.09119975151021956,Medium,0.001493135338356717,0.002620632018995822,0.002620632018995823
LACKAWANNA ENERGY CENTER,JESSUP,PA,41.472034436930144,-75.54551677610765,1377.1275417450072,15.593772835404192,14508002.179731311,0.09119975151021956,Low,0.0007558081494166262,0.0013303094383506678,0.001330309438350666
BETHLEHEM POWER PLANT,BETHLEHEM,PA,40.618186927480934,-75.31418590295878,542.8883918077274,6.17891008964433,14508002.179731311,0.09119975151021956,Medium,0.001493135338356717,0.002620632018995822,0.002620632018995823
ARCHBALD POWER STATION,ARCHBALD,PA,41.48493192847264,-75.54028301142375,1200.9137074726207,13.889759520210053,14508002.179731311,0.09119975151021956,Low,0.0007558081494166262,0.0013303094383506678,0.001330309438350666
WHITEMARSH CENTRAL UTILITY PLANT,LAFAYETTE HILL,PA,40.095901462515265,-75.24699382486696,224.70398171715965,2.709466993312775,14508002.179731311,0.09119975151021956,Medium,0.001493135338356717,0.002620632018995822,0.002620632018995823
BETHLEHEM RENEWABLE ENERGY LLC,BETHLEHEM,PA,40.62152860230827,-75.31019572959191,1933.2560198360754,22.695597622516324,14508002.179731311,0.09119975151021956,Low,0.0007558081494166262,0.0013303094383506678,0.001330309438350666
PARADISE SOLAR ENERGY CENTER,WEST DEPTFORD,NJ,39.83583447466863,-75.22250346825578,759.2685192440684,8.39963258771005,14508002.179731311,0.09119975151021956,Medium,0.001493135338356717,0.002620632018995822,0.002620632018995823
WEST DEPTFORD ENERGY STATION,WEST DEPTFORD,NJ,39.8414001180169,-75.22139720604125,488.1917388493563,5.8924686997588696,14508002.179731311,0.09119975151021956,Medium,0.001493135338356717,0.002620632018995822,0.002620632018995823
"JOHNSON MATTHEY, INC. SOLAR",PAULSBORO,NJ,39.81744381902641,-75.21535472553157,612.4853982885398,6.856346965615924,14508002.179731311,0.09119975151021956,Medium,0.001493135338356717,0.002620632018995822,0.002620632018995823
PHILADELPHIA REFINERY,PHILADELPHIA,PA,39.90579983769166,-75.21219615617424,330.9505615865453,3.697350461212558,14508002.179731311,0.09119975151021956,Medium,0.001493135338356717,0.002620632018995822,0.002620632018995823
SPRING HOUSE,SPRING HOUSE,PA,40.18914029371361,-75.21208934465008,390.27462159927154,4.414714545283858,14508002.179731311,0.09119975151021956,Medium,0.001493135338356717,0.002620632018995822,0.002620632018995823
SCHUYLKILL GENERATING STATION,PHILA.,PA,39.94247433745195,-75.1891172375609,904.8485674638014,10.453597741640817,14508002.179731311,0.09119975151021956,Medium,0.001493135338356717,0.002620632018995822,0.002620632018995823
PSEG NATIONAL PARK GENERATING STATION,NATIONAL PARK,NJ,39.8600234701939,-75.1850507702482,1452.092451124552,17.05038321284285,14508002.179731311,0.09119975151021956,Low,0.0007558081494166262,0.0013303094383506678,0.001330309438350666
GRAYS FERRY COGENERATION,PHILADELPHIA,PA,39.94223019682529,-75.18767528198472,917.9905187328578,10.157989242702675,14508002.179731311,0.09119975151021956,Medium,0.001493135338356717,0.002620632018995822,0.002620632018995823
NAVY YARD PEAKER STATION,PHILADELPHIA,PA,39.89022442865055,-75.18553905150151,1420.1629526851164,16.54495797816845,14508002.179731311,0.09119975151021956,Low,0.0007558081494166262,0.0013303094383506678,0.001330309438350666
500 VIRGINIA SOLAR,FT. WASHINGTON,PA,40.13950345255688,-75.19208507205366,1102.256207353343,12.825116018913455,14508002.179731311,0.09119975151021956,Low,0.0007558081494166262,0.0013303094383506678,0.001330309438350666
ANHEUSER-BUSCH BALDWINSVILLE,BALDWINSVILLE,NY,43.151538842844545,-76.41484051246444,-87.74236228387508,-0.7265468790330107,14508002.179731311,0.09119975151021956,High,0.0026114149082491884,0.0045776212663076535,0.004577621266307653
LINCOLN FINANCIAL FIELD,PHILADELPHIA,PA,39.90355298098698,-75.16665629990877,-203.4289508325553,-2.0795800446145734,14508002.179731311,0.09119975151021956,High,0.0026114149082491884,0.0045776212663076535,0.004577621266307653
EAGLE POINT POWER GENERATION,WESTVILLE,NJ,39.871299715387515,-75.15568523049852,926.1348997567585,10.32067378129092,14508002.179731311,0.09119975151021956,Medium,0.001493135338356717,0.002620632018995822,0.002620632018995823
MINERAL POINT ENERGY,SUSQUEHANNA,PA,41.977111802413944,-75.64744548773552,446.0818206176365,5.018403136575023,14508002.179731311,0.09119975151021956,Medium,0.001493135338356717,0.002620632018995822,0.002620632018995823
PPL GLENDON LFGTE PLANT,GLENDON,PA,40.66778180696746,-75.23222331695442,555.2899602075906,6.209498766916778,14508002.179731311,0.09119975151021956,Medium,0.001493135338356717,0.002620632018995822,0.002620632018995823
TEMPLE SEGF,PHILADELPHIA,PA,39.980228396545726,-75.15076427099254,1317.2480957270998,15.417431695441437,14508002.179731311,0.09119975151021956,Low,0.0007558081494166262,0.0013303094383506678,0.001330309438350666
GREEN KNIGHT ENERGY CENTER,PEN ARGYL,PA,40.859142281897256,-75.26276378346986,1369.8161267536939,15.333436784071512,14508002.179731311,0.09119975151021956,Low,0.0007558081494166262,0.0013303094383506678,0.001330309438350666
OAKLAND DAM HYDROELECTRIC,OAKLAND,PA,41.944347367377425,-75.61778240159711,1375.2765563282283,16.083411443269227,14508002.179731311,0.09119975151021956,Low,0.0007558081494166262,0.0013303094383506678,0.001330309438350666
CRAYOLA SOLAR PROJECT,EASTON,PA,40.760551430398955,-75.2384489029341,733.5398897359524,8.145296298487512,14508002.179731311,0.09119975151021956,Medium,0.001493135338356717,0.002620632018995822,0.002620632018995823
WHEELABRATOR GLOUCESTER LP,WESTVILLE,NJ,39.873329134346584,-75.13791637051489,522.4349690597655,6.30169818814369,14508002.179731311,0.09119975151021956,Medium,0.001493135338356717,0.002620632018995822,0.002620632018995823
SOUTHWARK,PHILADELPHIA,PA,39.91396328989543,-75.1351850472542,301.5198482696874,3.556497144931015,14508002.179731311,0.09119975151021956,Medium,0.001493135338356717,0.002620632018995822,0.002620632018995823
WAYMART WIND,FOREST CITY,PA,41.555755598386256,-75.45132427058687,410.5429345080372,5.105001021660423,14508002.179731311,0.09119975151021956,Medium,0.001493135338356717,0.002620632018995822,0.002620632018995823
ONONDAGA ENERGY PARTNERS LP,CAMILLUS,NY,43.0243148734764,-76.25582867056711,689.0236565698651,8.305819164544058,14508002.179731311,0.09119975151021956,Medium,0.001493135338356717,0.002620632018995822,0.002620632018995823
CCMUA,CAMDEN,NJ,39.92305752823832,-75.12750224690919,505.405937117955,5.631513771865672,14508002.179731311,0.09119975151021956,Medium,0.001493135338356717,0.002620632018995822,0.002620632018995823
GLOUCESTER COMMUNITY COLLEGE SOLAR,SEWELL,NJ,39.77689740151527,-75.1229474983432,380.9271678395751,4.4258622351474015,14508002.179731311,0.09119975151021956,Medium,0.001493135338356717,0.002620632018995822,0.002620632018995823
RIVERSIDE RENEWABLE ENERGY LLC,GLOUCESTER CITY,NJ,39.90304181154992,-75.12569408039305,982.5899549685146,11.427898451392059,14508002.179731311,0.09119975151021956,Medium,0.001493135338356717,0.002620632018995822,0.002620632018995823
DELAWARE GENERATING STATION,PHILADELPHIA,PA,39.9670753202847,-75.1270521126288,632.0133283281124,7.014999136614539,14508002.179731311,0.09119975151021956,Medium,0.001493135338356717,0.002620632018995822,0.002620632018995823
DG CAMDEN LLC HOLTEC,CAMDEN,NJ,39.91096875252162,-75.12050609207665,215.72669114826363,2.7743321137261034,14508002.179731311,0.09119975151021956,Medium,0.001493135338356717,0.002620632018995822,0.002620632018995823
CAMDEN PLANT HOLDING LLC,CAMDEN,NJ,39.9176902491492,-75.11925487136506,1749.7307705723756,19.967336566975796,14508002.179731311,0.09119975151021956,Low,0.0007558081494166262,0.0013303094383506678,0.001330309438350666
CAMDEN RESOURCE RECOVERY FACILITY,CAMDEN,NJ,39.90942761481586,-75.1167295417581,1156.767637497334,13.793478502576198,14508002.179731311,0.09119975151021956,Low,0.0007558081494166262,0.0013303094383506678,0.001330309438350666
KINSLEYS LANDFILL,SEWELL,NJ,39.791912050054535,-75.11028270333554,-63.21680551155487,-0.44028800938317403,14508002.179731311,0.09119975151021956,High,0.0026114149082491884,0.0045776212663076535,0.004577621266307653
WRIGHTER ENERGY,THOMPSON,PA,41.87998960937287,-75.55776195441324,-203.4289508325553,-2.0795800446145734,14508002.179731311,0.09119975151021956,High,0.0026114149082491884,0.0045776212663076535,0.004577621266307653
KINSLEY LANDFILL SOLAR,SEWELL,NJ,39.79333111744696,-75.10639171209824,491.43096332871926,5.703270926702957,14508002.179731311,0.09119975151021956,Medium,0.001493135338356717,0.002620632018995822,0.002620632018995823
BNB CAMDEN SOLAR,CAMDEN,NJ,39.93902966579774,-75.1080167731444,939.3694906768011,11.185811346820467,14508002.179731311,0.09119975151021956,Medium,0.001493135338356717,0.002620632018995822,0.002620632018995823
GILBERT,MILFORD,NJ,40.56583020715537,-75.16388682967516,1274.953124143776,13.982944396869268,14508002.179731311,0.09119975151021956,Low,0.0007558081494166262,0.0013303094383506678,0.001330309438350666
MILFORD SOLAR FARM (NJ) LLC,MILFORD TOWNSHIP,NJ,40.61495587887505,-75.15648631692973,87.45339611672784,1.1787054900234342,14508002.179731311,0.09119975151021956,High,0.0026114149082491884,0.0045776212663076535,0.004577621266307653
PWD NORTHEAST WPCP BIOGAS COGEN PLANT,PHILADELPHIA,PA,39.988609286495105,-75.08332805227406,597.1222419243119,7.13859951059958,14508002.179731311,0.09119975151021956,Medium,0.001493135338356717,0.002620632018995822,0.002620632018995823
CH RESOURCES SYRACUSE,SOLVAY,NY,43.06684111888182,-76.22470074066878,747.4222803617942,8.327006895881583,14508002.179731311,0.09119975151021956,Medium,0.001493135338356717,0.002620632018995822,0.002620632018995823
HARMONY,PHILLIPSBURG,NJ,40.75526807465026,-75.17108897816145,448.950881906199,5.033952849701063,14508002.179731311,0.09119975151021956,Medium,0.001493135338356717,0.002620632018995822,0.002620632018995823
RICHMOND GENERATING STATION,PHILA.,PA,39.98471066586321,-75.07510356491366,296.6147482127417,3.6381752250861012,14508002.179731311,0.09119975151021956,Medium,0.001493135338356717,0.002620632018995822,0.002620632018995823
OSWEGO FALLS WEST,FULTON,NY,43.31574630245358,-76.41666393776975,107.25896267129883,1.5411528772690843,14508002.179731311,0.09119975151021956,High,0.0026114149082491884,0.0045776212663076535,0.004577621266307653
